[
    {
        "type": "R",
        "name": "Armada Teras Restaurant - Armada Otel",
        "rating": 4.6,
        "lon": 28.9813062921,
        "lat": 41.0033111921,
        "category": [
            "Turkish",
            "Seafood",
            "Aegean"
        ],
        "comment_count": 420,
        "price_range": 4,
        "avg_price": 250
    },
    {
        "type": "R",
        "name": "Neolokal",
        "rating": 4.5,
        "lon": 28.9733176678,
        "lat": 41.0232871438,
        "category": [
            "Turkish",
            "Aegean"
        ],
        "comment_count": 173,
        "price_range": 4,
        "avg_price": 280
    },
    {
        "type": "R",
        "name": "Aida - Vino E Cucina",
        "rating": 4.4,
        "lon": 29.0256294608,
        "lat": 40.9855389636,
        "category": [
            "Aegean",
            "Mediterranean",
            "World Cuisine"
        ],
        "comment_count": 242,
        "price_range": 4,
        "avg_price": 160
    },
    {
        "type": "R",
        "name": "Nadide Meyhane",
        "rating": 4.4,
        "lon": 29.0077035874,
        "lat": 41.0694885843,
        "category": [
            "Old Turkish Bars",
            "Seafood",
            "Aegean"
        ],
        "comment_count": 313,
        "price_range": 4,
        "avg_price": 300
    },
    {
        "type": "R",
        "name": "Giritli Restaurant",
        "rating": 4.3,
        "lon": 28.9815718308,
        "lat": 41.0035566244,
        "category": [
            "Aegean",
            "Greek",
            "Seafood"
        ],
        "comment_count": 103,
        "price_range": 4,
        "avg_price": 290
    },
    {
        "type": "R",
        "name": "Ouzo Roof Restaurant - Wyndham Grand İstanbul Kalamış Marina Hotel",
        "rating": 4.2,
        "lon": 29.0413700044,
        "lat": 40.9773028483,
        "category": [
            "Aegean",
            "Fresh Fish",
            "Mediterranean"
        ],
        "comment_count": 305,
        "price_range": 4,
        "avg_price": 350
    },
    {
        "type": "R",
        "name": "Moshonis Balık Restaurant",
        "rating": 4.2,
        "lon": 29.0445933491,
        "lat": 40.9794589166,
        "category": [
            "Fresh Fish",
            "Seafood",
            "Aegean"
        ],
        "comment_count": 119,
        "price_range": 4,
        "avg_price": 200
    },
    {
        "type": "R",
        "name": "Maria's Restaurant",
        "rating": 4.2,
        "lon": 29.0258353204,
        "lat": 41.0785593378,
        "category": [
            "Aegean",
            "World Cuisine",
            "Seafood"
        ],
        "comment_count": 125,
        "price_range": 4,
        "avg_price": 400
    },
    {
        "type": "R",
        "name": "Sakar Zeybek",
        "rating": 4.1,
        "lon": 29.0404268727,
        "lat": 41.0107876092,
        "category": [
            "Old Turkish Bars",
            "Aegean"
        ],
        "comment_count": 196,
        "price_range": 4,
        "avg_price": 250
    },
    {
        "type": "R",
        "name": "Kamo's Mykonos",
        "rating": 4.1,
        "lon": 29.006004408,
        "lat": 41.0507059129,
        "category": [
            "Old Turkish Bars",
            "Aegean"
        ],
        "comment_count": 106,
        "price_range": 4,
        "avg_price": 360
    },
    {
        "type": "R",
        "name": "The North Shield Pub",
        "rating": 4.9,
        "lon": 29.0534899011,
        "lat": 40.9749204095,
        "category": [
            "Bar Food",
            "Burger"
        ],
        "comment_count": 479,
        "price_range": 4,
        "avg_price": 200
    },
    {
        "type": "R",
        "name": "Biber Burger",
        "rating": 4.6,
        "lon": 29.0087694302,
        "lat": 41.0419977336,
        "category": [
            "Burger"
        ],
        "comment_count": 1427,
        "price_range": 3,
        "avg_price": 60
    },
    {
        "type": "R",
        "name": "Virginia Angus",
        "rating": 4.6,
        "lon": 28.9676048979,
        "lat": 41.0160130073,
        "category": [
            "Steak",
            "Burger"
        ],
        "comment_count": 1477,
        "price_range": 3,
        "avg_price": 70
    },
    {
        "type": "R",
        "name": "Mini Eatery",
        "rating": 4.6,
        "lon": 29.0256804228,
        "lat": 40.9870104219,
        "category": [
            "Burger"
        ],
        "comment_count": 537,
        "price_range": 2,
        "avg_price": 50
    },
    {
        "type": "R",
        "name": "Bebek Steakhouse & Burger Joint",
        "rating": 4.6,
        "lon": 29.0438815579,
        "lat": 41.0778269097,
        "category": [
            "Steak",
            "Burger"
        ],
        "comment_count": 164,
        "price_range": 4,
        "avg_price": 160
    },
    {
        "type": "R",
        "name": "Mosquito",
        "rating": 4.5,
        "lon": 29.0270376205,
        "lat": 40.9874586356,
        "category": [
            "Restaurant Cafe",
            "Beverages",
            "Coffee and Tea",
            "Burger",
            "Desserts",
            "Juices"
        ],
        "comment_count": 691,
        "price_range": 3,
        "avg_price": 100
    },
    {
        "type": "R",
        "name": "Nusr-Et Burger",
        "rating": 4.5,
        "lon": 29.0424513,
        "lat": 41.078548,
        "category": [
            "Steak",
            "Burger"
        ],
        "comment_count": 422,
        "price_range": 4,
        "avg_price": 130
    },
    {
        "type": "R",
        "name": "Carl's Jr.",
        "rating": 4.5,
        "lon": 28.9927794412,
        "lat": 41.0624597097,
        "category": [
            "Fast Food",
            "Burger"
        ],
        "comment_count": 468,
        "price_range": 2,
        "avg_price": 50
    },
    {
        "type": "R",
        "name": "Bam's",
        "rating": 4.5,
        "lon": 29.0444012359,
        "lat": 41.0038131886,
        "category": [
            "Restaurant Cafe",
            "Burger",
            "Turkish"
        ],
        "comment_count": 381,
        "price_range": 3,
        "avg_price": 90
    },
    {
        "type": "R",
        "name": "Daily Dana Burger & Steak",
        "rating": 4.5,
        "lon": 29.0638878196,
        "lat": 40.9679477633,
        "category": [
            "Burger",
            "Steak"
        ],
        "comment_count": 306,
        "price_range": 4,
        "avg_price": 140
    },
    {
        "type": "R",
        "name": "Nusr-Et Burger",
        "rating": 4.4,
        "lon": 28.9932538569,
        "lat": 41.0481076639,
        "category": [
            "Steak",
            "Burger"
        ],
        "comment_count": 460,
        "price_range": 4,
        "avg_price": 150
    },
    {
        "type": "R",
        "name": "Burger Joint",
        "rating": 4.4,
        "lon": 29.0021775663,
        "lat": 41.0472016914,
        "category": [
            "Burger"
        ],
        "comment_count": 506,
        "price_range": 3,
        "avg_price": 65
    },
    {
        "type": "R",
        "name": "Nusr-Et Burger",
        "rating": 4.4,
        "lon": 29.0114476159,
        "lat": 41.0780068583,
        "category": [
            "Steak",
            "Burger"
        ],
        "comment_count": 349,
        "price_range": 4,
        "avg_price": 150
    },
    {
        "type": "R",
        "name": "BeerHall",
        "rating": 4.3,
        "lon": 29.0012002364,
        "lat": 41.0423601022,
        "category": [
            "Finger Food",
            "American"
        ],
        "comment_count": 1012,
        "price_range": 4,
        "avg_price": 125
    },
    {
        "type": "R",
        "name": "City Burger",
        "rating": 4.3,
        "lon": 29.0032474324,
        "lat": 41.0432833366,
        "category": [
            "Burger"
        ],
        "comment_count": 487,
        "price_range": 2,
        "avg_price": 40
    },
    {
        "type": "R",
        "name": "Beş Bıçak Steakhouse - Kasap",
        "rating": 4.3,
        "lon": 28.6447641626,
        "lat": 41.0171101491,
        "category": [
            "Steak",
            "Burger"
        ],
        "comment_count": 289,
        "price_range": 4,
        "avg_price": 120
    },
    {
        "type": "R",
        "name": "HOPDADDY Burger",
        "rating": 4.3,
        "lon": 29.069834277,
        "lat": 41.12097442,
        "category": [
            "Burger"
        ],
        "comment_count": 274,
        "price_range": 3,
        "avg_price": 80
    },
    {
        "type": "R",
        "name": "Nusr-Et Burger",
        "rating": 4.3,
        "lon": 29.0327336267,
        "lat": 41.109862371,
        "category": [
            "Steak",
            "Burger"
        ],
        "comment_count": 202,
        "price_range": 4,
        "avg_price": 150
    },
    {
        "type": "R",
        "name": "Porter Bar. B.Q. & Craft Cocktails",
        "rating": 4.3,
        "lon": 29.0551133081,
        "lat": 40.9741073434,
        "category": [
            "American",
            "Sushi",
            "Japanese",
            "Tex-Mex"
        ],
        "comment_count": 201,
        "price_range": 4,
        "avg_price": 150
    },
    {
        "type": "R",
        "name": "Zula İstanbul",
        "rating": 4.3,
        "lon": 28.984811604,
        "lat": 41.0453295277,
        "category": [
            "Burger"
        ],
        "comment_count": 123,
        "price_range": 3,
        "avg_price": 80
    },
    {
        "type": "R",
        "name": "Komşu Kasap",
        "rating": 4.3,
        "lon": 29.0100515261,
        "lat": 41.0865925112,
        "category": [
            "Burger"
        ],
        "comment_count": 206,
        "price_range": 3,
        "avg_price": 60
    },
    {
        "type": "R",
        "name": "Carl's Jr.",
        "rating": 4.3,
        "lon": 29.0100035816,
        "lat": 41.0770247173,
        "category": [
            "Fast Food",
            "Burger"
        ],
        "comment_count": 101,
        "price_range": 2,
        "avg_price": 50
    },
    {
        "type": "R",
        "name": "Baltazar",
        "rating": 4.2,
        "lon": 28.9810779691,
        "lat": 41.0258051799,
        "category": [
            "Burger",
            "Izgara"
        ],
        "comment_count": 1833,
        "price_range": 3,
        "avg_price": 90
    },
    {
        "type": "R",
        "name": "Virginia Angus",
        "rating": 4.2,
        "lon": 28.9901555702,
        "lat": 41.0512260055,
        "category": [
            "Steak",
            "Burger"
        ],
        "comment_count": 1098,
        "price_range": 3,
        "avg_price": 70
    },
    {
        "type": "R",
        "name": "Num Num",
        "rating": 4.2,
        "lon": 29.0112471208,
        "lat": 41.0781041618,
        "category": [
            "Izgara",
            "Burger"
        ],
        "comment_count": 622,
        "price_range": 4,
        "avg_price": 200
    },
    {
        "type": "R",
        "name": "Pişi Breakfast & Burger",
        "rating": 4.2,
        "lon": 29.0028551593,
        "lat": 41.0432608312,
        "category": [
            "Turkish",
            "Burger"
        ],
        "comment_count": 461,
        "price_range": 2,
        "avg_price": 55
    },
    {
        "type": "R",
        "name": "Burger Yiyelim",
        "rating": 4.2,
        "lon": 28.8482640311,
        "lat": 40.9951377767,
        "category": [
            "Burger"
        ],
        "comment_count": 427,
        "price_range": 2,
        "avg_price": 50
    },
    {
        "type": "R",
        "name": "Black House",
        "rating": 4.2,
        "lon": 29.0214485675,
        "lat": 40.9801248587,
        "category": [
            "Bar Food",
            "American"
        ],
        "comment_count": 166,
        "price_range": 3,
        "avg_price": 110
    },
    {
        "type": "R",
        "name": "Cafe J. Burger",
        "rating": 4.1,
        "lon": 29.053578414,
        "lat": 40.970048191,
        "category": [
            "Burger",
            "Izgara"
        ],
        "comment_count": 596,
        "price_range": 4,
        "avg_price": 140
    },
    {
        "type": "R",
        "name": "Dobby's Burger Place",
        "rating": 4.1,
        "lon": 29.0405747294,
        "lat": 40.9833587965,
        "category": [
            "Burger",
            "American"
        ],
        "comment_count": 310,
        "price_range": 3,
        "avg_price": 80
    },
    {
        "type": "R",
        "name": "Black Angus",
        "rating": 4.1,
        "lon": 28.9802860469,
        "lat": 41.0276283246,
        "category": [
            "Steak",
            "Burger"
        ],
        "comment_count": 224,
        "price_range": 3,
        "avg_price": 100
    },
    {
        "type": "R",
        "name": "Ora Steak & Burgers",
        "rating": 4.1,
        "lon": 29.0411359817,
        "lat": 41.0225890072,
        "category": [
            "Steak",
            "Burger"
        ],
        "comment_count": 188,
        "price_range": 3,
        "avg_price": 110
    },
    {
        "type": "R",
        "name": "Özgür Şef'in Deli Kasap",
        "rating": 4.1,
        "lon": 29.0232798457,
        "lat": 40.9820588621,
        "category": [
            "Izgara",
            "Steak",
            "Burger"
        ],
        "comment_count": 202,
        "price_range": 4,
        "avg_price": 140
    },
    {
        "type": "R",
        "name": "Mezbaa",
        "rating": 4.1,
        "lon": 28.9810444415,
        "lat": 41.0257624335,
        "category": [
            "Steak",
            "Burger"
        ],
        "comment_count": 145,
        "price_range": 3,
        "avg_price": 75
    },
    {
        "type": "R",
        "name": "Retro Burger",
        "rating": 4.1,
        "lon": 29.0078309923,
        "lat": 41.0656969378,
        "category": [
            "Burger"
        ],
        "comment_count": 125,
        "price_range": 3,
        "avg_price": 70
    },
    {
        "type": "R",
        "name": "Fireroom",
        "rating": 4.0,
        "lon": 29.1084976494,
        "lat": 40.9851823566,
        "category": [
            "Burger",
            "Fast Food"
        ],
        "comment_count": 160,
        "price_range": 3,
        "avg_price": 75
    },
    {
        "type": "R",
        "name": "Carl's Jr.",
        "rating": 4.0,
        "lon": 29.0288742632,
        "lat": 40.9887065822,
        "category": [
            "Fast Food",
            "Burger"
        ],
        "comment_count": 159,
        "price_range": 2,
        "avg_price": 50
    },
    {
        "type": "R",
        "name": "Burger Stop",
        "rating": 4.0,
        "lon": 28.9951599017,
        "lat": 41.0541115976,
        "category": [
            "Burger"
        ],
        "comment_count": 101,
        "price_range": 3,
        "avg_price": 90
    },
    {
        "type": "R",
        "name": "Burger Lab",
        "rating": 4.0,
        "lon": 28.9798431471,
        "lat": 41.0255868949,
        "category": [
            "Burger"
        ],
        "comment_count": 342,
        "price_range": 3,
        "avg_price": 75
    },
    {
        "type": "R",
        "name": "Arada Cafe",
        "rating": 4.4,
        "lon": 28.9781858772,
        "lat": 41.0264944296,
        "category": [
            "Cafe",
            "Lebanese"
        ],
        "comment_count": 488,
        "price_range": 3,
        "avg_price": 110
    },
    {
        "type": "R",
        "name": "Tahin",
        "rating": 4.4,
        "lon": 29.0491078421,
        "lat": 41.0861106041,
        "category": [
            "Lebanese"
        ],
        "comment_count": 192,
        "price_range": 3,
        "avg_price": 80
    },
    {
        "type": "R",
        "name": "Nomads",
        "rating": 4.4,
        "lon": 29.0307990834,
        "lat": 41.0496950454,
        "category": [
            "Arabian",
            "Lebanese"
        ],
        "comment_count": 161,
        "price_range": 4,
        "avg_price": 580
    },
    {
        "type": "R",
        "name": "Tahin",
        "rating": 4.3,
        "lon": 28.9789560065,
        "lat": 41.0246312887,
        "category": [
            "Lebanese"
        ],
        "comment_count": 167,
        "price_range": 3,
        "avg_price": 80
    },
    {
        "type": "R",
        "name": "Arabesque",
        "rating": 4.2,
        "lon": 28.9872252569,
        "lat": 41.0422387229,
        "category": [
            "Lebanese"
        ],
        "comment_count": 201,
        "price_range": 4,
        "avg_price": 550
    },
    {
        "type": "R",
        "name": "Pim Karaköy",
        "rating": 4.1,
        "lon": 28.9809270948,
        "lat": 41.0256830112,
        "category": [
            "Restaurant Cafe",
            "Eastern Anatolia",
            "Lebanese"
        ],
        "comment_count": 707,
        "price_range": 4,
        "avg_price": 170
    },
    {
        "type": "R",
        "name": "Tahin",
        "rating": 4.0,
        "lon": 29.0259677544,
        "lat": 40.9856761392,
        "category": [
            "Lebanese"
        ],
        "comment_count": 103,
        "price_range": 3,
        "avg_price": 80
    },
    {
        "type": "R",
        "name": "Upper West Side",
        "rating": 4.0,
        "lon": 28.9933651686,
        "lat": 41.0621343602,
        "category": [
            "Lebanese",
            "Fast Food"
        ],
        "comment_count": 101,
        "price_range": 2,
        "avg_price": 40
    },
    {
        "type": "R",
        "name": "Miyabi Sushi & Japanese Grill Bar",
        "rating": 4.9,
        "lon": 29.0265605226,
        "lat": 41.0817399216,
        "category": [
            "Sushi",
            "Japanese",
            "Asian"
        ],
        "comment_count": 363,
        "price_range": 4,
        "avg_price": 200
    },
    {
        "type": "R",
        "name": "Yada Sushi",
        "rating": 4.9,
        "lon": 29.0489418805,
        "lat": 41.1106070724,
        "category": [
            "Japanese",
            "Sushi",
            "Asian"
        ],
        "comment_count": 237,
        "price_range": 4,
        "avg_price": 250
    },
    {
        "type": "R",
        "name": "Banyan Restaurant",
        "rating": 4.7,
        "lon": 29.0249877423,
        "lat": 41.0474464544,
        "category": [
            "Asian"
        ],
        "comment_count": 361,
        "price_range": 4,
        "avg_price": 300
    },
    {
        "type": "R",
        "name": "İnari Omakase Japanese Restaurant",
        "rating": 4.7,
        "lon": 29.0362664312,
        "lat": 41.0596887525,
        "category": [
            "Japanese",
            "Sushi",
            "Asian"
        ],
        "comment_count": 258,
        "price_range": 4,
        "avg_price": 180
    },
    {
        "type": "R",
        "name": "Shang Palace - Shangri-La Bosphorus İstanbul",
        "rating": 4.6,
        "lon": 29.0051886812,
        "lat": 41.0402604608,
        "category": [
            "Chinese",
            "Asian"
        ],
        "comment_count": 122,
        "price_range": 4,
        "avg_price": 400
    },
    {
        "type": "R",
        "name": "360 İstanbul",
        "rating": 4.5,
        "lon": 28.9765447006,
        "lat": 41.0327089866,
        "category": [
            "World Cuisine",
            "Turkish",
            "Sushi",
            "Japanese"
        ],
        "comment_count": 1490,
        "price_range": 4,
        "avg_price": 220
    },
    {
        "type": "R",
        "name": "Sunset Grill & Bar",
        "rating": 4.5,
        "lon": 29.0331336111,
        "lat": 41.0640057929,
        "category": [
            "World Cuisine",
            "Mediterranean",
            "Turkish",
            "Japanese",
            "Sushi"
        ],
        "comment_count": 583,
        "price_range": 4,
        "avg_price": 450
    },
    {
        "type": "R",
        "name": "Zuma",
        "rating": 4.5,
        "lon": 29.0315638483,
        "lat": 41.1097428845,
        "category": [
            "Japanese",
            "Sushi",
            "Asian"
        ],
        "comment_count": 190,
        "price_range": 4,
        "avg_price": 300
    },
    {
        "type": "R",
        "name": "IST TOO - Shangri-La Bosphorus İstanbul",
        "rating": 4.5,
        "lon": 29.0053921938,
        "lat": 41.0401668946,
        "category": [
            "Asian",
            "Mediterranean",
            "World Cuisine"
        ],
        "comment_count": 103,
        "price_range": 4,
        "avg_price": 400
    },
    {
        "type": "R",
        "name": "Wagamama",
        "rating": 4.4,
        "lon": 29.0118724108,
        "lat": 41.0778959069,
        "category": [
            "Japanese",
            "Asian"
        ],
        "comment_count": 413,
        "price_range": 3,
        "avg_price": 80
    },
    {
        "type": "R",
        "name": "İoki Sushi Bar & Japanese Restaurant",
        "rating": 4.4,
        "lon": 29.0578592196,
        "lat": 41.0739005218,
        "category": [
            "Japanese",
            "Sushi",
            "Asian"
        ],
        "comment_count": 191,
        "price_range": 4,
        "avg_price": 170
    },
    {
        "type": "R",
        "name": "P.F. Chang's",
        "rating": 4.4,
        "lon": 29.1107671335,
        "lat": 40.9940886033,
        "category": [
            "Chinese",
            "Sushi",
            "Asian"
        ],
        "comment_count": 227,
        "price_range": 4,
        "avg_price": 250
    },
    {
        "type": "R",
        "name": "29",
        "rating": 4.4,
        "lon": 29.0321468934,
        "lat": 41.064554851,
        "category": [
            "World Cuisine",
            "Turkish",
            "Sushi",
            "Japanese"
        ],
        "comment_count": 345,
        "price_range": 4,
        "avg_price": 450
    },
    {
        "type": "R",
        "name": "Pera Thai",
        "rating": 4.4,
        "lon": 28.9729807153,
        "lat": 41.0281582109,
        "category": [
            "Thai",
            "Asian"
        ],
        "comment_count": 171,
        "price_range": 4,
        "avg_price": 300
    },
    {
        "type": "R",
        "name": "Çin Büfe",
        "rating": 4.3,
        "lon": 28.9789808169,
        "lat": 41.0338796989,
        "category": [
            "Chinese",
            "Sushi",
            "Japanese",
            "Asian"
        ],
        "comment_count": 335,
        "price_range": 4,
        "avg_price": 120
    },
    {
        "type": "R",
        "name": "Çok Çok Thai",
        "rating": 4.3,
        "lon": 28.9751660451,
        "lat": 41.0326500584,
        "category": [
            "Thai",
            "Asian"
        ],
        "comment_count": 196,
        "price_range": 4,
        "avg_price": 180
    },
    {
        "type": "R",
        "name": "İoki Sushi Bar & Japanese Restaurant",
        "rating": 4.3,
        "lon": 29.0386006236,
        "lat": 41.1207789297,
        "category": [
            "Japanese",
            "Sushi",
            "Asian"
        ],
        "comment_count": 161,
        "price_range": 4,
        "avg_price": 220
    },
    {
        "type": "R",
        "name": "Cafe Bunka  Sushi & Japanese Restaurant",
        "rating": 4.3,
        "lon": 28.9831550047,
        "lat": 41.03666894,
        "category": [
            "Sushi",
            "Japanese",
            "Asian"
        ],
        "comment_count": 135,
        "price_range": 4,
        "avg_price": 120
    },
    {
        "type": "R",
        "name": "SushiCo",
        "rating": 4.2,
        "lon": 28.9912442118,
        "lat": 41.0493491522,
        "category": [
            "Sushi",
            "Japanese",
            "Asian"
        ],
        "comment_count": 229,
        "price_range": 4,
        "avg_price": 200
    },
    {
        "type": "R",
        "name": "Çin Büfe",
        "rating": 4.2,
        "lon": 29.0031495318,
        "lat": 41.0428342382,
        "category": [
            "Chinese",
            "Sushi",
            "Japanese",
            "Asian"
        ],
        "comment_count": 229,
        "price_range": 4,
        "avg_price": 120
    },
    {
        "type": "R",
        "name": "Konoha",
        "rating": 4.2,
        "lon": 29.0405348316,
        "lat": 41.0014977485,
        "category": [
            "Chinese"
        ],
        "comment_count": 160,
        "price_range": 3,
        "avg_price": 80
    },
    {
        "type": "R",
        "name": "Far East",
        "rating": 4.2,
        "lon": 29.0319698676,
        "lat": 41.1103597658,
        "category": [
            "Chinese",
            "Sushi",
            "Asian"
        ],
        "comment_count": 159,
        "price_range": 4,
        "avg_price": 140
    },
    {
        "type": "R",
        "name": "Chinese & Sushi Express",
        "rating": 4.2,
        "lon": 29.0661160648,
        "lat": 40.9678538412,
        "category": [
            "Japanese",
            "Chinese",
            "Sushi",
            "Asian"
        ],
        "comment_count": 131,
        "price_range": 4,
        "avg_price": 120
    },
    {
        "type": "R",
        "name": "SushiCo",
        "rating": 4.2,
        "lon": 29.0874527022,
        "lat": 40.9570298797,
        "category": [
            "Sushi",
            "Japanese",
            "Asian"
        ],
        "comment_count": 150,
        "price_range": 4,
        "avg_price": 200
    },
    {
        "type": "R",
        "name": "Hai Sushi",
        "rating": 4.2,
        "lon": 29.0405123681,
        "lat": 40.9763085728,
        "category": [
            "Japanese",
            "Sushi",
            "Asian"
        ],
        "comment_count": 101,
        "price_range": 4,
        "avg_price": 300
    },
    {
        "type": "R",
        "name": "Fenix İstanbul",
        "rating": 4.2,
        "lon": 29.0326172858,
        "lat": 41.0794297488,
        "category": [
            "World Cuisine",
            "Asian"
        ],
        "comment_count": 144,
        "price_range": 4,
        "avg_price": 350
    },
    {
        "type": "R",
        "name": "İoki Sushi Bar & Japanese Restaurant",
        "rating": 4.2,
        "lon": 29.0276800096,
        "lat": 41.0747919727,
        "category": [
            "Japanese",
            "Sushi",
            "Asian"
        ],
        "comment_count": 102,
        "price_range": 4,
        "avg_price": 220
    },
    {
        "type": "R",
        "name": "Kawaii Chinese & Sushi",
        "rating": 4.2,
        "lon": 29.1221645102,
        "lat": 40.9907613023,
        "category": [
            "Chinese",
            "Sushi",
            "Japanese",
            "Asian",
            "Seafood"
        ],
        "comment_count": 111,
        "price_range": 4,
        "avg_price": 150
    },
    {
        "type": "R",
        "name": "Noodle House",
        "rating": 4.2,
        "lon": 29.0076700598,
        "lat": 41.0477683366,
        "category": [
            "Chinese",
            "Asian"
        ],
        "comment_count": 110,
        "price_range": 3,
        "avg_price": 70
    },
    {
        "type": "R",
        "name": "Dardenia Fish & Sushi",
        "rating": 4.1,
        "lon": 29.0661837906,
        "lat": 40.9678578917,
        "category": [
            "Seafood",
            "Fresh Fish",
            "Fast Food",
            "Sushi",
            "Japanese"
        ],
        "comment_count": 345,
        "price_range": 4,
        "avg_price": 145
    },
    {
        "type": "R",
        "name": "Dubb Indian Restaurant",
        "rating": 4.1,
        "lon": 28.9773510396,
        "lat": 41.0081855075,
        "category": [
            "Indian",
            "Asian",
            "Izgara",
            "Turkish"
        ],
        "comment_count": 160,
        "price_range": 4,
        "avg_price": 220
    },
    {
        "type": "R",
        "name": "Dardenia Fish & Bread",
        "rating": 4.1,
        "lon": 28.9949389547,
        "lat": 41.0490609065,
        "category": [
            "Seafood",
            "Fresh Fish",
            "Fast Food",
            "Sushi",
            "Japanese"
        ],
        "comment_count": 102,
        "price_range": 4,
        "avg_price": 145
    },
    {
        "type": "R",
        "name": "Naomi",
        "rating": 4.1,
        "lon": 28.9900633693,
        "lat": 41.0503506698,
        "category": [
            "Sushi",
            "Japanese",
            "Asian"
        ],
        "comment_count": 115,
        "price_range": 4,
        "avg_price": 200
    },
    {
        "type": "R",
        "name": "SushiCo",
        "rating": 4.0,
        "lon": 29.0116595104,
        "lat": 41.078118315,
        "category": [
            "Sushi",
            "Japanese",
            "Asian"
        ],
        "comment_count": 200,
        "price_range": 4,
        "avg_price": 200
    },
    {
        "type": "R",
        "name": "Sopung",
        "rating": 4.0,
        "lon": 28.933824,
        "lat": 41.028359,
        "category": [
            "Korean"
        ],
        "comment_count": 182,
        "price_range": 3,
        "avg_price": 60
    },
    {
        "type": "R",
        "name": "Great Dong Fang",
        "rating": 4.0,
        "lon": 28.9929279685,
        "lat": 41.0624526314,
        "category": [
            "Chinese",
            "Asian"
        ],
        "comment_count": 185,
        "price_range": 4,
        "avg_price": 160
    },
    {
        "type": "R",
        "name": "Sushi Express",
        "rating": 4.0,
        "lon": 28.9733300731,
        "lat": 41.0284943513,
        "category": [
            "Japanese",
            "Chinese",
            "Sushi",
            "Asian"
        ],
        "comment_count": 131,
        "price_range": 4,
        "avg_price": 120
    },
    {
        "type": "R",
        "name": "J'adore Chocolatier",
        "rating": 4.8,
        "lon": 28.976338841,
        "lat": 41.0328091391,
        "category": [
            "Desserts"
        ],
        "comment_count": 1821,
        "price_range": 3,
        "avg_price": 60
    },
    {
        "type": "R",
        "name": "Karaköy Güllüoğlu",
        "rating": 4.8,
        "lon": 28.9776651934,
        "lat": 41.0230048547,
        "category": [
            "Desserts",
            "Börek"
        ],
        "comment_count": 1761,
        "price_range": 2,
        "avg_price": 50
    },
    {
        "type": "R",
        "name": "b.blokbakery",
        "rating": 4.8,
        "lon": 29.0019552782,
        "lat": 41.0437215586,
        "category": [
            "Cafe",
            "Bakery",
            "Izgara"
        ],
        "comment_count": 475,
        "price_range": 2,
        "avg_price": 50
    },
    {
        "type": "R",
        "name": "Hafız Mustafa",
        "rating": 4.8,
        "lon": 28.9851505682,
        "lat": 41.0365108803,
        "category": [
            "Desserts",
            "Patisserie"
        ],
        "comment_count": 279,
        "price_range": 2,
        "avg_price": 50
    },
    {
        "type": "R",
        "name": "Mendel's",
        "rating": 4.7,
        "lon": 29.0025530756,
        "lat": 41.0427740547,
        "category": [
            "Desserts",
            "Cafe"
        ],
        "comment_count": 1215,
        "price_range": 3,
        "avg_price": 65
    },
    {
        "type": "R",
        "name": "Çikolata Dükkanı",
        "rating": 4.7,
        "lon": 29.0236419439,
        "lat": 40.9834471283,
        "category": [
            "Desserts"
        ],
        "comment_count": 850,
        "price_range": 3,
        "avg_price": 60
    },
    {
        "type": "R",
        "name": "Pasta Sanatı",
        "rating": 4.7,
        "lon": 29.0028906986,
        "lat": 41.0449047182,
        "category": [
            "Patisserie",
            "Desserts"
        ],
        "comment_count": 342,
        "price_range": 2,
        "avg_price": 40
    },
    {
        "type": "R",
        "name": "Asuman",
        "rating": 4.6,
        "lon": 29.0263573453,
        "lat": 40.9836858008,
        "category": [
            "Desserts"
        ],
        "comment_count": 693,
        "price_range": 2,
        "avg_price": 55
    },
    {
        "type": "R",
        "name": "MOC İstanbul",
        "rating": 4.6,
        "lon": 28.9959716052,
        "lat": 41.0492533233,
        "category": [
            "Desserts",
            "Cafe",
            "Coffee and Tea"
        ],
        "comment_count": 848,
        "price_range": 3,
        "avg_price": 70
    },
    {
        "type": "R",
        "name": "Hafız Mustafa",
        "rating": 4.6,
        "lon": 28.9733897522,
        "lat": 41.0159464749,
        "category": [
            "Desserts",
            "Patisserie"
        ],
        "comment_count": 505,
        "price_range": 2,
        "avg_price": 50
    },
    {
        "type": "R",
        "name": "Şekerci Cafer Erol",
        "rating": 4.6,
        "lon": 29.0248365328,
        "lat": 40.9907868625,
        "category": [
            "Desserts",
            "Cafe"
        ],
        "comment_count": 409,
        "price_range": 2,
        "avg_price": 50
    },
    {
        "type": "R",
        "name": "Hümaliva Çikolata & Kahve",
        "rating": 4.6,
        "lon": 28.9937832579,
        "lat": 41.0530545142,
        "category": [
            "Desserts",
            "Cafe"
        ],
        "comment_count": 289,
        "price_range": 3,
        "avg_price": 60
    },
    {
        "type": "R",
        "name": "Gaziburma",
        "rating": 4.6,
        "lon": 29.2329977453,
        "lat": 40.8782645321,
        "category": [
            "Desserts",
            "Turkish"
        ],
        "comment_count": 370,
        "price_range": 2,
        "avg_price": 35
    },
    {
        "type": "R",
        "name": "Le Pain Quotidien",
        "rating": 4.6,
        "lon": 29.0871271491,
        "lat": 40.9573686618,
        "category": [
            "Bakery",
            "Healthy Food",
            "Cafe"
        ],
        "comment_count": 252,
        "price_range": 4,
        "avg_price": 150
    },
    {
        "type": "R",
        "name": "Meşhur Sarıyer Börekçisi",
        "rating": 4.6,
        "lon": 29.0575779229,
        "lat": 41.1688916279,
        "category": [
            "Börek",
            "Desserts"
        ],
        "comment_count": 193,
        "price_range": 2,
        "avg_price": 40
    },
    {
        "type": "R",
        "name": "Baylan",
        "rating": 4.5,
        "lon": 29.0237254277,
        "lat": 40.9903541089,
        "category": [
            "Patisserie",
            "Desserts",
            "Cafe"
        ],
        "comment_count": 919,
        "price_range": 2,
        "avg_price": 45
    },
    {
        "type": "R",
        "name": "Kemal Usta Waffles",
        "rating": 4.5,
        "lon": 29.0230686218,
        "lat": 40.9813534548,
        "category": [
            "Desserts"
        ],
        "comment_count": 581,
        "price_range": 2,
        "avg_price": 45
    },
    {
        "type": "R",
        "name": "Beyaz Fırın",
        "rating": 4.5,
        "lon": 29.0247895941,
        "lat": 40.990693226,
        "category": [
            "Patisserie",
            "Bakery"
        ],
        "comment_count": 478,
        "price_range": 3,
        "avg_price": 75
    },
    {
        "type": "R",
        "name": "Hafız Mustafa",
        "rating": 4.5,
        "lon": 28.9758614078,
        "lat": 41.0145098149,
        "category": [
            "Desserts"
        ],
        "comment_count": 322,
        "price_range": 2,
        "avg_price": 50
    },
    {
        "type": "R",
        "name": "Edebiyat Kıraathanesi - Hafız Mustafa",
        "rating": 4.5,
        "lon": 28.9770043641,
        "lat": 41.0079471767,
        "category": [
            "Cafe",
            "Desserts"
        ],
        "comment_count": 300,
        "price_range": 3,
        "avg_price": 60
    },
    {
        "type": "R",
        "name": "180° Coffee Bakery",
        "rating": 4.5,
        "lon": 29.0268890932,
        "lat": 40.9846759156,
        "category": [
            "Cafe",
            "Bakery"
        ],
        "comment_count": 262,
        "price_range": 2,
        "avg_price": 55
    },
    {
        "type": "R",
        "name": "Karaköy Galata Simitçisi",
        "rating": 4.5,
        "lon": 28.9791937172,
        "lat": 41.0248437593,
        "category": [
            "Bakery"
        ],
        "comment_count": 123,
        "price_range": 1,
        "avg_price": 15
    },
    {
        "type": "R",
        "name": "Ali Muhiddin Hacı Bekir",
        "rating": 4.5,
        "lon": 28.9813532308,
        "lat": 41.0351325833,
        "category": [
            "Desserts"
        ],
        "comment_count": 157,
        "price_range": 2,
        "avg_price": 35
    },
    {
        "type": "R",
        "name": "Salih Özkan Pasta & Baklava",
        "rating": 4.5,
        "lon": 28.9288248494,
        "lat": 41.0144723738,
        "category": [
            "Desserts",
            "Patisserie"
        ],
        "comment_count": 120,
        "price_range": 2,
        "avg_price": 30
    },
    {
        "type": "R",
        "name": "Çikolata Kahve",
        "rating": 4.4,
        "lon": 29.053158313,
        "lat": 41.0499805071,
        "category": [
            "Desserts"
        ],
        "comment_count": 673,
        "price_range": 2,
        "avg_price": 35
    },
    {
        "type": "R",
        "name": "Köşkeroğlu Baklava",
        "rating": 4.4,
        "lon": 28.9772712439,
        "lat": 41.0232165716,
        "category": [
            "Desserts",
            "Patisserie"
        ],
        "comment_count": 494,
        "price_range": 2,
        "avg_price": 45
    },
    {
        "type": "R",
        "name": "Le Pain Quotidien",
        "rating": 4.4,
        "lon": 29.0116528049,
        "lat": 41.0779570692,
        "category": [
            "Bakery",
            "Healthy Food",
            "Cafe"
        ],
        "comment_count": 367,
        "price_range": 4,
        "avg_price": 150
    },
    {
        "type": "R",
        "name": "Hane Çikolata & Kahve",
        "rating": 4.4,
        "lon": 29.0259640664,
        "lat": 40.9860013604,
        "category": [
            "Desserts",
            "Cafe"
        ],
        "comment_count": 332,
        "price_range": 2,
        "avg_price": 40
    },
    {
        "type": "R",
        "name": "The Crepe Escape",
        "rating": 4.4,
        "lon": 29.0655273199,
        "lat": 40.9672485341,
        "category": [
            "Coffee and Tea",
            "Desserts"
        ],
        "comment_count": 296,
        "price_range": 3,
        "avg_price": 60
    },
    {
        "type": "R",
        "name": "Kaşıbeyaz Akvaryum",
        "rating": 4.4,
        "lon": 28.8000972569,
        "lat": 40.9632530137,
        "category": [
            "Kebab",
            "Izgara",
            "Desserts"
        ],
        "comment_count": 280,
        "price_range": 4,
        "avg_price": 300
    },
    {
        "type": "R",
        "name": "Baltepe Pastanesi",
        "rating": 4.4,
        "lon": 28.9468563348,
        "lat": 41.0234163994,
        "category": [
            "Patisserie",
            "Ice Cream",
            "Desserts"
        ],
        "comment_count": 196,
        "price_range": 2,
        "avg_price": 30
    },
    {
        "type": "R",
        "name": "Şirin Fırın",
        "rating": 4.4,
        "lon": 28.973428309,
        "lat": 41.0261752257,
        "category": [
            "Bakery",
            "Desserts",
            "Home-made"
        ],
        "comment_count": 181,
        "price_range": 2,
        "avg_price": 45
    },
    {
        "type": "R",
        "name": "Ab'bas Waffle",
        "rating": 4.4,
        "lon": 29.0445266292,
        "lat": 41.0779499926,
        "category": [
            "Desserts"
        ],
        "comment_count": 304,
        "price_range": 2,
        "avg_price": 35
    },
    {
        "type": "R",
        "name": "It's OK Coffee & Restarting Co.",
        "rating": 4.4,
        "lon": 28.9832897857,
        "lat": 41.0306421696,
        "category": [
            "Coffee and Tea",
            "Desserts"
        ],
        "comment_count": 112,
        "price_range": 2,
        "avg_price": 50
    },
    {
        "type": "R",
        "name": "Göreme Muhallebicisi",
        "rating": 4.4,
        "lon": 28.9832669869,
        "lat": 41.050732714,
        "category": [
            "Desserts",
            "Restaurant Cafe"
        ],
        "comment_count": 132,
        "price_range": 3,
        "avg_price": 80
    },
    {
        "type": "R",
        "name": "Maria's Cheesecakes",
        "rating": 4.4,
        "lon": 29.1183829308,
        "lat": 40.9920527139,
        "category": [
            "Desserts"
        ],
        "comment_count": 135,
        "price_range": 3,
        "avg_price": 60
    },
    {
        "type": "R",
        "name": "Kafadaroğlu Baklava & Börek",
        "rating": 4.4,
        "lon": 29.0043310449,
        "lat": 41.0426514118,
        "category": [
            "Desserts",
            "Börek"
        ],
        "comment_count": 111,
        "price_range": 1,
        "avg_price": 25
    },
    {
        "type": "R",
        "name": "Valonia",
        "rating": 4.3,
        "lon": 29.0027931333,
        "lat": 41.0443845756,
        "category": [
            "Restaurant Cafe",
            "Desserts"
        ],
        "comment_count": 1718,
        "price_range": 3,
        "avg_price": 90
    },
    {
        "type": "R",
        "name": "Emirgan Sütiş",
        "rating": 4.3,
        "lon": 29.0565013513,
        "lat": 41.1047399196,
        "category": [
            "Restaurant Cafe",
            "Turkish",
            "Desserts"
        ],
        "comment_count": 1227,
        "price_range": 3,
        "avg_price": 110
    },
    {
        "type": "R",
        "name": "Naan Bakeshop",
        "rating": 4.3,
        "lon": 29.0243825689,
        "lat": 40.9841431486,
        "category": [
            "Bakery",
            "Desserts"
        ],
        "comment_count": 571,
        "price_range": 3,
        "avg_price": 70
    },
    {
        "type": "R",
        "name": "Kaşıbeyaz Bosphorus",
        "rating": 4.3,
        "lon": 29.0670980886,
        "lat": 41.1281579071,
        "category": [
            "Kebab",
            "Izgara",
            "Desserts"
        ],
        "comment_count": 552,
        "price_range": 4,
        "avg_price": 300
    },
    {
        "type": "R",
        "name": "Moda Çikolatacısı",
        "rating": 4.3,
        "lon": 29.0276746452,
        "lat": 40.9843441073,
        "category": [
            "Desserts",
            "Cafe"
        ],
        "comment_count": 419,
        "price_range": 3,
        "avg_price": 70
    },
    {
        "type": "R",
        "name": "Kireçburnu Fırını",
        "rating": 4.3,
        "lon": 29.0454992652,
        "lat": 41.1481454451,
        "category": [
            "Bakery",
            "Restaurant Cafe",
            "Turkish",
            "Patisserie"
        ],
        "comment_count": 365,
        "price_range": 3,
        "avg_price": 95
    },
    {
        "type": "R",
        "name": "Espressolab",
        "rating": 4.3,
        "lon": 28.984186314,
        "lat": 41.0361745279,
        "category": [
            "Cafe",
            "Coffee and Tea",
            "Desserts"
        ],
        "comment_count": 326,
        "price_range": 2,
        "avg_price": 45
    },
    {
        "type": "R",
        "name": "Develi",
        "rating": 4.3,
        "lon": 28.8073459268,
        "lat": 40.9622828318,
        "category": [
            "Kebab",
            "Turkish Pizza",
            "Desserts"
        ],
        "comment_count": 328,
        "price_range": 4,
        "avg_price": 300
    },
    {
        "type": "R",
        "name": "Beyaz Fırın & Brasserie",
        "rating": 4.3,
        "lon": 29.0808524564,
        "lat": 40.957219527,
        "category": [
            "Bakery",
            "Restaurant Cafe"
        ],
        "comment_count": 278,
        "price_range": 4,
        "avg_price": 150
    },
    {
        "type": "R",
        "name": "Çikolata Mahzeni",
        "rating": 4.3,
        "lon": 29.0035800263,
        "lat": 41.0436838812,
        "category": [
            "Cafe",
            "Desserts"
        ],
        "comment_count": 239,
        "price_range": 2,
        "avg_price": 50
    },
    {
        "type": "R",
        "name": "La Patisserie Lune",
        "rating": 4.3,
        "lon": 28.9935452119,
        "lat": 41.0505463698,
        "category": [
            "Desserts",
            "Cafe",
            "Fast Food"
        ],
        "comment_count": 230,
        "price_range": 2,
        "avg_price": 50
    },
    {
        "type": "R",
        "name": "Beyaz Fırın & Brasserie",
        "rating": 4.3,
        "lon": 29.0317841247,
        "lat": 41.0788848587,
        "category": [
            "Bakery",
            "Restaurant Cafe"
        ],
        "comment_count": 179,
        "price_range": 4,
        "avg_price": 150
    },
    {
        "type": "R",
        "name": "Chocolate Sarayı",
        "rating": 4.2,
        "lon": 29.0022064,
        "lat": 41.0475475958,
        "category": [
            "Desserts"
        ],
        "comment_count": 200,
        "price_range": 3,
        "avg_price": 75
    },
    {
        "type": "R",
        "name": "Tarihi Sarıyer Muhallebicisi",
        "rating": 4.3,
        "lon": 29.0571725741,
        "lat": 41.1684449021,
        "category": [
            "Desserts",
            "Börek"
        ],
        "comment_count": 194,
        "price_range": 2,
        "avg_price": 50
    },
    {
        "type": "R",
        "name": "Hacıbaşar Kebap Baklava",
        "rating": 4.3,
        "lon": 29.0827776119,
        "lat": 40.9723794179,
        "category": [
            "Kebab",
            "Izgara",
            "Desserts",
            "Turkish Pizza"
        ],
        "comment_count": 104,
        "price_range": 3,
        "avg_price": 90
    },
    {
        "type": "R",
        "name": "Zeynel Muhallebicisi",
        "rating": 4.3,
        "lon": 29.0632856637,
        "lat": 41.1165517508,
        "category": [
            "Desserts",
            "Restaurant Cafe",
            "Ice Cream"
        ],
        "comment_count": 158,
        "price_range": 3,
        "avg_price": 80
    },
    {
        "type": "R",
        "name": "Coffee Manifesto",
        "rating": 4.3,
        "lon": 29.0242404118,
        "lat": 40.9890112892,
        "category": [
            "Desserts",
            "Cafe"
        ],
        "comment_count": 117,
        "price_range": 2,
        "avg_price": 40
    },
    {
        "type": "R",
        "name": "Chocca",
        "rating": 4.3,
        "lon": 29.0240405872,
        "lat": 40.9846792058,
        "category": [
            "Desserts",
            "Cafe"
        ],
        "comment_count": 118,
        "price_range": 2,
        "avg_price": 50
    },
    {
        "type": "R",
        "name": "Willy Wonka Chocolate ",
        "rating": 4.2,
        "lon": 28.9757625014,
        "lat": 41.0261529673,
        "category": [
            "Desserts",
            "Cafe"
        ],
        "comment_count": 536,
        "price_range": 2,
        "avg_price": 45
    },
    {
        "type": "R",
        "name": "Meşhur Dondurmacı Ali Usta",
        "rating": 4.2,
        "lon": 29.0229683742,
        "lat": 40.9815523972,
        "category": [
            "Desserts",
            "Ice Cream",
            "Cafe"
        ],
        "comment_count": 864,
        "price_range": 2,
        "avg_price": 30
    },
    {
        "type": "R",
        "name": "Emirgan Sütiş",
        "rating": 4.2,
        "lon": 29.0528843924,
        "lat": 41.0499170432,
        "category": [
            "Restaurant Cafe",
            "Izgara",
            "Desserts"
        ],
        "comment_count": 641,
        "price_range": 3,
        "avg_price": 110
    },
    {
        "type": "R",
        "name": "Grandma",
        "rating": 4.2,
        "lon": 28.994999975,
        "lat": 41.0488224707,
        "category": [
            "Bakery",
            "Desserts",
            "Coffee and Tea"
        ],
        "comment_count": 436,
        "price_range": 2,
        "avg_price": 55
    },
    {
        "type": "R",
        "name": "Süleymaniye Çikolatacısı",
        "rating": 4.2,
        "lon": 28.9607609063,
        "lat": 41.0129625687,
        "category": [
            "Desserts"
        ],
        "comment_count": 239,
        "price_range": 2,
        "avg_price": 40
    },
    {
        "type": "R",
        "name": "Saray Muhallebicisi",
        "rating": 4.2,
        "lon": 28.9803474024,
        "lat": 41.0347534833,
        "category": [
            "Desserts",
            "Turkish"
        ],
        "comment_count": 365,
        "price_range": 2,
        "avg_price": 55
    },
    {
        "type": "R",
        "name": "Develi",
        "rating": 4.2,
        "lon": 29.0401874855,
        "lat": 40.9763698295,
        "category": [
            "Kebab",
            "Turkish Pizza",
            "Desserts"
        ],
        "comment_count": 312,
        "price_range": 4,
        "avg_price": 240
    },
    {
        "type": "R",
        "name": "Backhaus",
        "rating": 4.2,
        "lon": 28.9924676344,
        "lat": 41.0514368731,
        "category": [
            "Patisserie",
            "Bakery"
        ],
        "comment_count": 227,
        "price_range": 3,
        "avg_price": 90
    },
    {
        "type": "R",
        "name": "Beyaz Fırın",
        "rating": 4.2,
        "lon": 29.0704099461,
        "lat": 40.96419356,
        "category": [
            "Bakery",
            "Patisserie",
            "Restaurant Cafe"
        ],
        "comment_count": 227,
        "price_range": 3,
        "avg_price": 75
    },
    {
        "type": "R",
        "name": "Rumeli Çikolatacısı",
        "rating": 4.2,
        "lon": 29.0527214482,
        "lat": 41.0113679765,
        "category": [
            "Desserts",
            "Cafe"
        ],
        "comment_count": 158,
        "price_range": 3,
        "avg_price": 70
    },
    {
        "type": "R",
        "name": "700gr Bakery and Cafe",
        "rating": 4.2,
        "lon": 29.026407972,
        "lat": 40.9847414672,
        "category": [
            "Restaurant Cafe",
            "Bakery"
        ],
        "comment_count": 139,
        "price_range": 3,
        "avg_price": 90
    },
    {
        "type": "R",
        "name": "Fauchon",
        "rating": 4.2,
        "lon": 29.0176807344,
        "lat": 41.0657884454,
        "category": [
            "French",
            "Desserts",
            "Restaurant Cafe"
        ],
        "comment_count": 115,
        "price_range": 4,
        "avg_price": 210
    },
    {
        "type": "R",
        "name": "Fıstıkzade",
        "rating": 4.2,
        "lon": 29.120827429,
        "lat": 40.9925590982,
        "category": [
            "Desserts",
            "Cafe"
        ],
        "comment_count": 125,
        "price_range": 2,
        "avg_price": 45
    },
    {
        "type": "R",
        "name": "Pare Baklava Bar",
        "rating": 4.2,
        "lon": 28.9950147271,
        "lat": 41.0499261455,
        "category": [
            "Desserts",
            "Cafe"
        ],
        "comment_count": 106,
        "price_range": 2,
        "avg_price": 50
    },
    {
        "type": "R",
        "name": "Hacı Şerif",
        "rating": 4.2,
        "lon": 28.9715433866,
        "lat": 41.0151045691,
        "category": [
            "Desserts",
            "Coffee and Tea"
        ],
        "comment_count": 162,
        "price_range": 1,
        "avg_price": 25
    },
    {
        "type": "R",
        "name": "Le Pain Quotidien",
        "rating": 4.2,
        "lon": 29.030909054,
        "lat": 41.1094379783,
        "category": [
            "Bakery",
            "Healthy Food",
            "Cafe"
        ],
        "comment_count": 119,
        "price_range": 4,
        "avg_price": 150
    },
    {
        "type": "R",
        "name": "OD46",
        "rating": 4.2,
        "lon": 29.0253810212,
        "lat": 40.986634082,
        "category": [
            "Desserts",
            "Cafe"
        ],
        "comment_count": 115,
        "price_range": 2,
        "avg_price": 40
    },
    {
        "type": "R",
        "name": "Emirgan Sütiş",
        "rating": 4.2,
        "lon": 29.0451398492,
        "lat": 41.0677169015,
        "category": [
            "Restaurant Cafe",
            "Turkish",
            "Desserts"
        ],
        "comment_count": 131,
        "price_range": 3,
        "avg_price": 110
    },
    {
        "type": "R",
        "name": "Gazebo Lounge - Çırağan Palace Kempinski",
        "rating": 4.2,
        "lon": 29.017165,
        "lat": 41.044675,
        "category": [
            "World Cuisine",
            "Desserts"
        ],
        "comment_count": 112,
        "price_range": 4,
        "avg_price": 500
    },
    {
        "type": "R",
        "name": "Hatay Ekol Künefe",
        "rating": 4.2,
        "lon": 29.0318169817,
        "lat": 41.0179188905,
        "category": [
            "Desserts"
        ],
        "comment_count": 117,
        "price_range": 2,
        "avg_price": 45
    },
    {
        "type": "R",
        "name": "Hacıbaşar Kebap Baklava",
        "rating": 4.2,
        "lon": 29.0640319884,
        "lat": 40.9754421133,
        "category": [
            "Kebab",
            "Izgara",
            "Desserts",
            "Turkish Pizza"
        ],
        "comment_count": 126,
        "price_range": 3,
        "avg_price": 80
    },
    {
        "type": "R",
        "name": "Bebek Waffle & Kumpir",
        "rating": 4.2,
        "lon": 29.0442698076,
        "lat": 41.077914104,
        "category": [
            "Desserts",
            "Kumpir"
        ],
        "comment_count": 110,
        "price_range": 2,
        "avg_price": 45
    },
    {
        "type": "R",
        "name": "Hacı Bekir Künç",
        "rating": 4.2,
        "lon": 29.0876461565,
        "lat": 41.0247992417,
        "category": [
            "Ice Cream",
            "Desserts"
        ],
        "comment_count": 113,
        "price_range": 2,
        "avg_price": 55
    },
    {
        "type": "R",
        "name": "Maia Chocolates",
        "rating": 4.1,
        "lon": 29.0535163879,
        "lat": 41.05047077,
        "category": [
            "Desserts",
            "Coffee and Tea"
        ],
        "comment_count": 295,
        "price_range": 3,
        "avg_price": 60
    },
    {
        "type": "R",
        "name": "Develi",
        "rating": 4.1,
        "lon": 29.1077063978,
        "lat": 40.985341805,
        "category": [
            "Kebab",
            "Turkish Pizza",
            "Desserts"
        ],
        "comment_count": 280,
        "price_range": 4,
        "avg_price": 200
    },
    {
        "type": "R",
        "name": "Eleos Restaurant",
        "rating": 4.9,
        "lon": 28.9753682166,
        "lat": 41.0293864176,
        "category": [
            "Greek",
            "Fresh Fish",
            "Old Turkish Bars"
        ],
        "comment_count": 1082,
        "price_range": 4,
        "avg_price": 270
    },
    {
        "type": "R",
        "name": "Eleos Restaurant",
        "rating": 4.7,
        "lon": 28.8218385726,
        "lat": 40.9575436225,
        "category": [
            "Greek",
            "Fresh Fish",
            "Old Turkish Bars"
        ],
        "comment_count": 418,
        "price_range": 4,
        "avg_price": 350
    },
    {
        "type": "R",
        "name": "Lipa",
        "rating": 4.7,
        "lon": 29.2241789773,
        "lat": 40.8864432972,
        "category": [
            "Balkans",
            "Old Turkish Bars"
        ],
        "comment_count": 288,
        "price_range": 4,
        "avg_price": 130
    },
    {
        "type": "R",
        "name": "Asitane Restaurant",
        "rating": 4.7,
        "lon": 28.9388764277,
        "lat": 41.0310508845,
        "category": [
            "Ottoman"
        ],
        "comment_count": 272,
        "price_range": 4,
        "avg_price": 180
    },
    {
        "type": "R",
        "name": "Hidiv Kasrı Restoran",
        "rating": 4.4,
        "lon": 29.0738720074,
        "lat": 41.1049321735,
        "category": [
            "Turkish",
            "Ottoman",
            "Mediterranean"
        ],
        "comment_count": 346,
        "price_range": 3,
        "avg_price": 100
    },
    {
        "type": "R",
        "name": "Matbah Ottoman Place Cuisine",
        "rating": 4.4,
        "lon": 28.97931844,
        "lat": 41.0090421758,
        "category": [
            "Ottoman"
        ],
        "comment_count": 148,
        "price_range": 4,
        "avg_price": 320
    },
    {
        "type": "R",
        "name": "Borsa Restaurant",
        "rating": 4.4,
        "lon": 29.0583876148,
        "lat": 41.0720634932,
        "category": [
            "World Cuisine",
            "Kebab",
            "Ottoman",
            "Fresh Fish"
        ],
        "comment_count": 120,
        "price_range": 4,
        "avg_price": 550
    },
    {
        "type": "R",
        "name": "Eşraf Lokantası",
        "rating": 4.3,
        "lon": 28.7956058979,
        "lat": 40.9874411728,
        "category": [
            "Ottoman",
            "Izgara",
            "Döner"
        ],
        "comment_count": 289,
        "price_range": 4,
        "avg_price": 140
    },
    {
        "type": "R",
        "name": "Barba Vasilis",
        "rating": 4.3,
        "lon": 28.952839002,
        "lat": 41.0286691234,
        "category": [
            "Old Turkish Bars",
            "Greek"
        ],
        "comment_count": 253,
        "price_range": 4,
        "avg_price": 230
    },
    {
        "type": "R",
        "name": "Tuğra Restaurant - Çırağan Palace Kempinski",
        "rating": 4.3,
        "lon": 29.015411,
        "lat": 41.043599,
        "category": [
            "Ottoman"
        ],
        "comment_count": 199,
        "price_range": 4,
        "avg_price": 450
    },
    {
        "type": "R",
        "name": "Kydonia",
        "rating": 4.3,
        "lon": 29.0353403986,
        "lat": 41.0592842604,
        "category": [
            "Mediterranean",
            "Greek"
        ],
        "comment_count": 171,
        "price_range": 4,
        "avg_price": 430
    },
    {
        "type": "R",
        "name": "Güler Osmanlı Mutfağı",
        "rating": 4.3,
        "lon": 29.0413693339,
        "lat": 40.9948533426,
        "category": [
            "Ottoman",
            "Izgara",
            "Kebab",
            "Turkish Pizza",
            "Home-made"
        ],
        "comment_count": 150,
        "price_range": 2,
        "avg_price": 50
    },
    {
        "type": "R",
        "name": "Galata Kulesi Restaurant",
        "rating": 4.2,
        "lon": 28.9740080014,
        "lat": 41.0253984559,
        "category": [
            "Ottoman",
            "Turkish"
        ],
        "comment_count": 288,
        "price_range": 4,
        "avg_price": 180
    },
    {
        "type": "R",
        "name": "Deraliye Ottoman Cuisine Restaurant",
        "rating": 4.2,
        "lon": 28.976079002,
        "lat": 41.0085872777,
        "category": [
            "Ottoman"
        ],
        "comment_count": 125,
        "price_range": 4,
        "avg_price": 260
    },
    {
        "type": "R",
        "name": "Sandzak Balkan Mutfağı",
        "rating": 4.1,
        "lon": 29.2342335731,
        "lat": 40.8715149273,
        "category": [
            "Balkans",
            "Izgara"
        ],
        "comment_count": 164,
        "price_range": 4,
        "avg_price": 170
    },
    {
        "type": "R",
        "name": "Avliya Boşnak Mutfağı",
        "rating": 4.0,
        "lon": 28.8902355731,
        "lat": 41.0597426003,
        "category": [
            "Balkans"
        ],
        "comment_count": 239,
        "price_range": 3,
        "avg_price": 80
    },
    {
        "type": "R",
        "name": "Sarı Köşk Restoran",
        "rating": 4.0,
        "lon": 29.0535227582,
        "lat": 41.1078740171,
        "category": [
            "Ottoman",
            "Turkish"
        ],
        "comment_count": 201,
        "price_range": 3,
        "avg_price": 80
    },
    {
        "type": "R",
        "name": "O Maestros",
        "rating": 4.0,
        "lon": 29.0432676673,
        "lat": 41.0673602336,
        "category": [
            "Old Turkish Bars",
            "Greek"
        ],
        "comment_count": 129,
        "price_range": 4,
        "avg_price": 230
    },
    {
        "type": "R",
        "name": "Draft Gastro Pub",
        "rating": 4.7,
        "lon": 29.0742451698,
        "lat": 40.9640239335,
        "category": [
            "Bar Food"
        ],
        "comment_count": 924,
        "price_range": 4,
        "avg_price": 180
    },
    {
        "type": "R",
        "name": "The Populist",
        "rating": 4.7,
        "lon": 28.9803695306,
        "lat": 41.0581627928,
        "category": [
            "Bar Food"
        ],
        "comment_count": 567,
        "price_range": 4,
        "avg_price": 150
    },
    {
        "type": "R",
        "name": "Palivor Çiftliği",
        "rating": 4.5,
        "lon": 28.9937363192,
        "lat": 41.0479142324,
        "category": [
            "Turkish",
            "Bar Food"
        ],
        "comment_count": 185,
        "price_range": 4,
        "avg_price": 120
    },
    {
        "type": "R",
        "name": "Solera",
        "rating": 4.5,
        "lon": 28.9782968536,
        "lat": 41.032071902,
        "category": [
            "Bar Food"
        ],
        "comment_count": 201,
        "price_range": 4,
        "avg_price": 170
    },
    {
        "type": "R",
        "name": "Joker No:19",
        "rating": 4.4,
        "lon": 29.004261978,
        "lat": 41.0417355019,
        "category": [
            "Bar Food",
            "Cafe"
        ],
        "comment_count": 847,
        "price_range": 4,
        "avg_price": 220
    },
    {
        "type": "R",
        "name": "Old English Pub",
        "rating": 4.4,
        "lon": 29.0762048587,
        "lat": 40.9622618178,
        "category": [
            "Bar Food",
            "Cafe"
        ],
        "comment_count": 391,
        "price_range": 4,
        "avg_price": 130
    },
    {
        "type": "R",
        "name": "Zeplin",
        "rating": 4.4,
        "lon": 29.0254373476,
        "lat": 40.9864392044,
        "category": [
            "Bar Food",
            "Cafe"
        ],
        "comment_count": 311,
        "price_range": 4,
        "avg_price": 140
    },
    {
        "type": "R",
        "name": "The North Shield",
        "rating": 4.4,
        "lon": 28.6859364063,
        "lat": 41.0673488586,
        "category": [
            "Bar Food",
            "Cafe"
        ],
        "comment_count": 161,
        "price_range": 4,
        "avg_price": 175
    },
    {
        "type": "R",
        "name": "Varuna Gezgin",
        "rating": 4.3,
        "lon": 28.9755184203,
        "lat": 41.0293669425,
        "category": [
            "Bar Food"
        ],
        "comment_count": 514,
        "price_range": 3,
        "avg_price": 110
    },
    {
        "type": "R",
        "name": "ANY",
        "rating": 4.3,
        "lon": 29.0431593731,
        "lat": 41.0673306587,
        "category": [
            "Bar Food",
            "Cafe"
        ],
        "comment_count": 300,
        "price_range": 4,
        "avg_price": 200
    },
    {
        "type": "R",
        "name": "Kafe Pi Asmalımescit Bomonti Brasserie",
        "rating": 4.3,
        "lon": 28.9741977677,
        "lat": 41.0290095609,
        "category": [
            "Beverages",
            "Bar Food"
        ],
        "comment_count": 343,
        "price_range": 4,
        "avg_price": 150
    },
    {
        "type": "R",
        "name": "Draft Gastro Pub",
        "rating": 4.3,
        "lon": 29.0256106853,
        "lat": 40.9867750515,
        "category": [
            "Bar Food"
        ],
        "comment_count": 338,
        "price_range": 4,
        "avg_price": 180
    },
    {
        "type": "R",
        "name": "Draft Gastro Pub",
        "rating": 4.3,
        "lon": 29.0518289432,
        "lat": 40.9757134684,
        "category": [
            "Bar Food"
        ],
        "comment_count": 199,
        "price_range": 4,
        "avg_price": 160
    },
    {
        "type": "R",
        "name": "The United Pub",
        "rating": 4.3,
        "lon": 29.0045147762,
        "lat": 41.0437172598,
        "category": [
            "Bar Food"
        ],
        "comment_count": 190,
        "price_range": 4,
        "avg_price": 140
    },
    {
        "type": "R",
        "name": "Kilit Bar",
        "rating": 4.3,
        "lon": 29.0069643036,
        "lat": 41.0464054468,
        "category": [
            "Bar Food",
            "Cafe"
        ],
        "comment_count": 173,
        "price_range": 4,
        "avg_price": 125
    },
    {
        "type": "R",
        "name": "Parantez Bistro",
        "rating": 4.3,
        "lon": 28.9741642401,
        "lat": 41.0293525259,
        "category": [
            "Bar Food"
        ],
        "comment_count": 154,
        "price_range": 4,
        "avg_price": 150
    },
    {
        "type": "R",
        "name": "Kosmos",
        "rating": 4.2,
        "lon": 29.0042857826,
        "lat": 41.0418156635,
        "category": [
            "Bar Food",
            "Cafe"
        ],
        "comment_count": 328,
        "price_range": 4,
        "avg_price": 160
    },
    {
        "type": "R",
        "name": "Bosphorus Brewing Company",
        "rating": 4.2,
        "lon": 29.0061509237,
        "lat": 41.0664145868,
        "category": [
            "Bar Food"
        ],
        "comment_count": 284,
        "price_range": 4,
        "avg_price": 150
    },
    {
        "type": "R",
        "name": "Bibuçuk",
        "rating": 4.2,
        "lon": 29.0658907592,
        "lat": 40.9675758715,
        "category": [
            "Izgara",
            "Bar Food"
        ],
        "comment_count": 285,
        "price_range": 4,
        "avg_price": 130
    },
    {
        "type": "R",
        "name": "Karga Bar",
        "rating": 4.2,
        "lon": 29.0267040208,
        "lat": 40.9863329073,
        "category": [
            "Bar Food",
            "Cafe"
        ],
        "comment_count": 382,
        "price_range": 4,
        "avg_price": 120
    },
    {
        "type": "R",
        "name": "Kozmonot Pub",
        "rating": 4.2,
        "lon": 28.9965201169,
        "lat": 41.0512447156,
        "category": [
            "Bar Food"
        ],
        "comment_count": 240,
        "price_range": 4,
        "avg_price": 200
    },
    {
        "type": "R",
        "name": "bibuçuk",
        "rating": 4.2,
        "lon": 29.0872277319,
        "lat": 40.9572162354,
        "category": [
            "Izgara",
            "Bar Food"
        ],
        "comment_count": 221,
        "price_range": 4,
        "avg_price": 130
    },
    {
        "type": "R",
        "name": "Bistro Şair Leyla",
        "rating": 4.2,
        "lon": 29.0044721961,
        "lat": 41.043204694,
        "category": [
            "Bar Food"
        ],
        "comment_count": 127,
        "price_range": 4,
        "avg_price": 150
    },
    {
        "type": "R",
        "name": "James Joyce Irish Pub",
        "rating": 4.2,
        "lon": 28.9783451334,
        "lat": 41.0350706224,
        "category": [
            "Bar Food"
        ],
        "comment_count": 171,
        "price_range": 4,
        "avg_price": 150
    },
    {
        "type": "R",
        "name": "Draft Gastro Pub",
        "rating": 4.2,
        "lon": 29.0385624021,
        "lat": 40.99965718,
        "category": [
            "Bar Food"
        ],
        "comment_count": 141,
        "price_range": 4,
        "avg_price": 130
    },
    {
        "type": "R",
        "name": "OT",
        "rating": 4.1,
        "lon": 29.0652091429,
        "lat": 40.9673308116,
        "category": [
            "Restaurant Cafe",
            "Bar Food"
        ],
        "comment_count": 234,
        "price_range": 3,
        "avg_price": 100
    },
    {
        "type": "R",
        "name": "Oblomov",
        "rating": 4.1,
        "lon": 29.0255577117,
        "lat": 40.9886276214,
        "category": [
            "Bar Food"
        ],
        "comment_count": 147,
        "price_range": 4,
        "avg_price": 150
    },
    {
        "type": "R",
        "name": "Corner Irish Pub",
        "rating": 4.1,
        "lon": 28.9766509831,
        "lat": 41.0338751466,
        "category": [
            "Bar Food"
        ],
        "comment_count": 100,
        "price_range": 4,
        "avg_price": 180
    },
    {
        "type": "R",
        "name": "Kiki",
        "rating": 4.1,
        "lon": 28.9840642735,
        "lat": 41.0332567885,
        "category": [
            "Bar Food"
        ],
        "comment_count": 127,
        "price_range": 4,
        "avg_price": 200
    },
    {
        "type": "R",
        "name": "Thales Bistro",
        "rating": 4.0,
        "lon": 29.0058428049,
        "lat": 41.0433422552,
        "category": [
            "Bar Food",
            "Cafe"
        ],
        "comment_count": 604,
        "price_range": 4,
        "avg_price": 120
    },
    {
        "type": "R",
        "name": "Thales Cafe",
        "rating": 4.0,
        "lon": 29.0274902433,
        "lat": 40.9867079834,
        "category": [
            "Bar Food",
            "Cafe"
        ],
        "comment_count": 490,
        "price_range": 4,
        "avg_price": 140
    },
    {
        "type": "R",
        "name": "Beer's Cafe & Restaurant",
        "rating": 4.0,
        "lon": 29.0946604684,
        "lat": 40.9526037779,
        "category": [
            "Bar Food"
        ],
        "comment_count": 169,
        "price_range": 4,
        "avg_price": 200
    },
    {
        "type": "R",
        "name": "Hobo Kitchen Bar",
        "rating": 4.0,
        "lon": 29.025442712,
        "lat": 41.047441903,
        "category": [
            "Bar Food",
            "Cafe"
        ],
        "comment_count": 202,
        "price_range": 3,
        "avg_price": 110
    },
    {
        "type": "R",
        "name": "Belfast Irish Pub İstanbul",
        "rating": 4.0,
        "lon": 29.0263026953,
        "lat": 40.9854065966,
        "category": [
            "Bar Food"
        ],
        "comment_count": 179,
        "price_range": 4,
        "avg_price": 130
    },
    {
        "type": "R",
        "name": "Kazan",
        "rating": 4.0,
        "lon": 29.0063333139,
        "lat": 41.0414249697,
        "category": [
            "Bar Food",
            "Izgara"
        ],
        "comment_count": 136,
        "price_range": 4,
        "avg_price": 150
    },
    {
        "type": "R",
        "name": "Shine Beer Cafe",
        "rating": 4.0,
        "lon": 29.0218760446,
        "lat": 40.9891110019,
        "category": [
            "Bar Food"
        ],
        "comment_count": 121,
        "price_range": 4,
        "avg_price": 120
    },
    {
        "type": "R",
        "name": "The North Shield",
        "rating": 4.0,
        "lon": 29.1253077239,
        "lat": 40.9924616682,
        "category": [
            "Bar Food",
            "Cafe"
        ],
        "comment_count": 118,
        "price_range": 4,
        "avg_price": 170
    },
    {
        "type": "R",
        "name": "Peyote",
        "rating": 4.0,
        "lon": 28.9771937951,
        "lat": 41.0350402743,
        "category": [
            "Bar Food"
        ],
        "comment_count": 130,
        "price_range": 4,
        "avg_price": 120
    },
    {
        "type": "R",
        "name": "Kuka Cafe & Pub",
        "rating": 4.0,
        "lon": 29.0063363314,
        "lat": 41.0441152732,
        "category": [
            "Bar Food"
        ],
        "comment_count": 101,
        "price_range": 4,
        "avg_price": 120
    },
    {
        "type": "R",
        "name": "Bambi Cafe",
        "rating": 4.1,
        "lon": 28.9848555252,
        "lat": 41.0358328629,
        "category": [
            "Fast Food",
            "Döner",
            "Juices"
        ],
        "comment_count": 551,
        "price_range": 2,
        "avg_price": 40
    },
    {
        "type": "R",
        "name": "Baazen Tantuni",
        "rating": 4.1,
        "lon": 29.0139206126,
        "lat": 41.0775625462,
        "category": [
            "Turkish",
            "Fast Food",
            "Juices"
        ],
        "comment_count": 271,
        "price_range": 2,
        "avg_price": 55
    },
    {
        "type": "R",
        "name": "Patatos",
        "rating": 4.1,
        "lon": 28.976091072,
        "lat": 41.0317843394,
        "category": [
            "Fast Food",
            "Juices",
            "Döner",
            "Kumpir"
        ],
        "comment_count": 128,
        "price_range": 2,
        "avg_price": 50
    },
    {
        "type": "R",
        "name": "Stuff Healthy Drinks & Design Bar",
        "rating": 4.1,
        "lon": 29.0262876078,
        "lat": 40.9845982154,
        "category": [
            "Cafe",
            "Juices"
        ],
        "comment_count": 123,
        "price_range": 3,
        "avg_price": 60
    },
    {
        "type": "R",
        "name": "Morgül",
        "rating": 4.1,
        "lon": 28.8749949262,
        "lat": 40.9785654148,
        "category": [
            "Döner",
            "Fast Food",
            "Juices"
        ],
        "comment_count": 128,
        "price_range": 2,
        "avg_price": 50
    },
    {
        "type": "R",
        "name": "Taksim Hamburger",
        "rating": 4.0,
        "lon": 28.8720820472,
        "lat": 40.9874692651,
        "category": [
            "Döner",
            "Fast Food",
            "Juices"
        ],
        "comment_count": 229,
        "price_range": 2,
        "avg_price": 35
    },
    {
        "type": "R",
        "name": "Çömlek Kuru Fasulye",
        "rating": 4.4,
        "lon": 29.0708739683,
        "lat": 41.0259397422,
        "category": [
            "Black Sea",
            "Izgara"
        ],
        "comment_count": 529,
        "price_range": 3,
        "avg_price": 80
    },
    {
        "type": "R",
        "name": "Anzer Sofrası",
        "rating": 4.3,
        "lon": 29.0373922884,
        "lat": 41.1530544728,
        "category": [
            "Black Sea",
            "Home-made"
        ],
        "comment_count": 225,
        "price_range": 3,
        "avg_price": 90
    },
    {
        "type": "R",
        "name": "Pideban Karadeniz Pidecisi",
        "rating": 4.4,
        "lon": 29.0359056741,
        "lat": 41.156185001,
        "category": [
            "Turkish Pizza",
            "Black Sea"
        ],
        "comment_count": 218,
        "price_range": 3,
        "avg_price": 60
    },
    {
        "type": "R",
        "name": "Haçapuri Karadeniz Pidesi",
        "rating": 4.4,
        "lon": 29.0381587297,
        "lat": 40.9936918059,
        "category": [
            "Turkish Pizza",
            "Black Sea"
        ],
        "comment_count": 171,
        "price_range": 3,
        "avg_price": 60
    },
    {
        "type": "R",
        "name": "Cemil Usta Köfte & Balık",
        "rating": 4.3,
        "lon": 29.1342823952,
        "lat": 40.9389832977,
        "category": [
            "Black Sea",
            "Fresh Fish",
            "Izgara"
        ],
        "comment_count": 409,
        "price_range": 3,
        "avg_price": 90
    },
    {
        "type": "R",
        "name": "Pidesun Samsun Pide",
        "rating": 4.3,
        "lon": 29.025692828,
        "lat": 40.9865032356,
        "category": [
            "Turkish Pizza",
            "Black Sea"
        ],
        "comment_count": 299,
        "price_range": 3,
        "avg_price": 70
    },
    {
        "type": "R",
        "name": "Laz İstanbul",
        "rating": 4.3,
        "lon": 29.0275298059,
        "lat": 40.9915081123,
        "category": [
            "Home-made",
            "Black Sea",
            "Turkish Pizza"
        ],
        "comment_count": 207,
        "price_range": 3,
        "avg_price": 60
    },
    {
        "type": "R",
        "name": "Nalia",
        "rating": 4.1,
        "lon": 28.8269907609,
        "lat": 41.0203485966,
        "category": [
            "Black Sea",
            "Turkish",
            "Turkish Pizza"
        ],
        "comment_count": 282,
        "price_range": 4,
        "avg_price": 150
    },
    {
        "type": "R",
        "name": "Nalia",
        "rating": 4.2,
        "lon": 29.1069319099,
        "lat": 40.9670432196,
        "category": [
            "Black Sea",
            "Turkish",
            "Turkish Pizza"
        ],
        "comment_count": 280,
        "price_range": 4,
        "avg_price": 150
    },
    {
        "type": "R",
        "name": "Hayvore",
        "rating": 4.2,
        "lon": 28.9788064733,
        "lat": 41.0338855157,
        "category": [
            "Black Sea",
            "Turkish Pizza",
            "Home-made"
        ],
        "comment_count": 245,
        "price_range": 3,
        "avg_price": 60
    },
    {
        "type": "R",
        "name": "Çay Tarlası Cafe",
        "rating": 4.2,
        "lon": 29.0268619359,
        "lat": 40.9847371645,
        "category": [
            "Turkish",
            "Black Sea"
        ],
        "comment_count": 267,
        "price_range": 3,
        "avg_price": 60
    },
    {
        "type": "R",
        "name": "Karpi",
        "rating": 4.2,
        "lon": 29.0447438881,
        "lat": 41.0446361765,
        "category": [
            "Black Sea",
            "Turkish Pizza"
        ],
        "comment_count": 156,
        "price_range": 3,
        "avg_price": 85
    },
    {
        "type": "R",
        "name": "Pileki Pide",
        "rating": 4.1,
        "lon": 29.0465402976,
        "lat": 41.161578065,
        "category": [
            "Turkish Pizza",
            "Black Sea",
            "Home-made"
        ],
        "comment_count": 107,
        "price_range": 4,
        "avg_price": 120
    },
    {
        "type": "R",
        "name": "Fasuli Lokantaları",
        "rating": 4.0,
        "lon": 28.9815446734,
        "lat": 41.0260553341,
        "category": [
            "Black Sea",
            "Home-made",
            "Döner"
        ],
        "comment_count": 309,
        "price_range": 3,
        "avg_price": 100
    },
    {
        "type": "R",
        "name": "Muhlama Karadeniz Mutfağı",
        "rating": 4.0,
        "lon": 29.1066992283,
        "lat": 41.092549218,
        "category": [
            "Turkish Pizza",
            "Black Sea"
        ],
        "comment_count": 212,
        "price_range": 3,
        "avg_price": 60
    },
    {
        "type": "R",
        "name": "Cadde Karadeniz",
        "rating": 4.0,
        "lon": 29.0290345252,
        "lat": 40.9910067813,
        "category": [
            "Black Sea",
            "Home-made",
            "Turkish Pizza"
        ],
        "comment_count": 115,
        "price_range": 3,
        "avg_price": 60
    },
    {
        "type": "R",
        "name": "Trabzon Kültür Derneği",
        "rating": 4.0,
        "lon": 29.0453886241,
        "lat": 41.0357906288,
        "category": [
            "Fresh Fish",
            "Izgara",
            "Black Sea"
        ],
        "comment_count": 101,
        "price_range": 4,
        "avg_price": 160
    },
    {
        "type": "R",
        "name": "Havva Hanım Trabzon Kahvaltı",
        "rating": 4.0,
        "lon": 29.0878282115,
        "lat": 40.965365743,
        "category": [
            "Black Sea",
            "Turkish"
        ],
        "comment_count": 107,
        "price_range": 3,
        "avg_price": 70
    },
    {
        "type": "R",
        "name": "Çengelköy Börekçisi",
        "rating": 4.4,
        "lon": 29.0531489253,
        "lat": 41.0504674831,
        "category": [
            "Börek"
        ],
        "comment_count": 168,
        "price_range": 1,
        "avg_price": 25
    },
    {
        "type": "R",
        "name": "Tarihi Bilice Börekçisi",
        "rating": 4.3,
        "lon": 29.0362023935,
        "lat": 41.1567868046,
        "category": [
            "Börek"
        ],
        "comment_count": 103,
        "price_range": 2,
        "avg_price": 40
    },
    {
        "type": "R",
        "name": "Tarihi Bilice Börekçisi",
        "rating": 4.2,
        "lon": 28.9907754958,
        "lat": 41.1692588494,
        "category": [
            "Börek"
        ],
        "comment_count": 101,
        "price_range": 2,
        "avg_price": 40
    },
    {
        "type": "R",
        "name": "Boşnjak Mutfak",
        "rating": 4.1,
        "lon": 28.9810816571,
        "lat": 41.0257768509,
        "category": [
            "Börek",
            "Restaurant Cafe"
        ],
        "comment_count": 208,
        "price_range": 3,
        "avg_price": 70
    },
    {
        "type": "R",
        "name": "Kukis",
        "rating": 4.9,
        "lon": 29.0495882928,
        "lat": 41.0078841783,
        "category": [
            "Patisserie",
            "Cafe",
            "Turkish"
        ],
        "comment_count": 763,
        "price_range": 2,
        "avg_price": 45
    },
    {
        "type": "R",
        "name": "Starbucks",
        "rating": 4.9,
        "lon": 29.0440092981,
        "lat": 41.0774495722,
        "category": [
            "Cafe",
            "Coffee and Tea"
        ],
        "comment_count": 1287,
        "price_range": 2,
        "avg_price": 55
    },
    {
        "type": "R",
        "name": "Mandabatmaz Türk Kahvesi",
        "rating": 4.9,
        "lon": 28.9763780683,
        "lat": 41.0326475293,
        "category": [
            "Coffee and Tea"
        ],
        "comment_count": 635,
        "price_range": 1,
        "avg_price": 15
    },
    {
        "type": "R",
        "name": "Velvet Cafe",
        "rating": 4.9,
        "lon": 28.9736013114,
        "lat": 41.025323839,
        "category": [
            "Cafe",
            "Home-made"
        ],
        "comment_count": 641,
        "price_range": 2,
        "avg_price": 55
    },
    {
        "type": "R",
        "name": "Coffeetopia",
        "rating": 4.9,
        "lon": 28.9732952043,
        "lat": 41.016542987,
        "category": [
            "Cafe"
        ],
        "comment_count": 606,
        "price_range": 2,
        "avg_price": 50
    },
    {
        "type": "R",
        "name": "Türk Alman Kitabevi Cafe",
        "rating": 4.9,
        "lon": 28.9751928672,
        "lat": 41.0291281825,
        "category": [
            "Cafe"
        ],
        "comment_count": 352,
        "price_range": 3,
        "avg_price": 60
    },
    {
        "type": "R",
        "name": "Okkalı Kahve",
        "rating": 4.8,
        "lon": 29.0037040785,
        "lat": 41.0429786277,
        "category": [
            "Cafe"
        ],
        "comment_count": 509,
        "price_range": 2,
        "avg_price": 40
    },
    {
        "type": "R",
        "name": "Petra Roasting Co.",
        "rating": 4.8,
        "lon": 29.009395726,
        "lat": 41.0620767224,
        "category": [
            "Coffee and Tea",
            "Cafe"
        ],
        "comment_count": 341,
        "price_range": 3,
        "avg_price": 75
    },
    {
        "type": "R",
        "name": "Dem Karaköy",
        "rating": 4.7,
        "lon": 28.9735855535,
        "lat": 41.023262102,
        "category": [
            "Cafe"
        ],
        "comment_count": 1224,
        "price_range": 2,
        "avg_price": 35
    },
    {
        "type": "R",
        "name": "Patisserie De Pera - Pera Palace Hotel Jumeirah",
        "rating": 4.7,
        "lon": 28.9737910777,
        "lat": 41.0309985307,
        "category": [
            "Patisserie",
            "Cafe"
        ],
        "comment_count": 151,
        "price_range": 3,
        "avg_price": 75
    },
    {
        "type": "R",
        "name": "Caffe Nero",
        "rating": 4.6,
        "lon": 29.0657646954,
        "lat": 40.963892536,
        "category": [
            "Cafe"
        ],
        "comment_count": 330,
        "price_range": 2,
        "avg_price": 45
    },
    {
        "type": "R",
        "name": "Montag Coffee Roasters",
        "rating": 4.6,
        "lon": 29.0242712572,
        "lat": 40.9900466243,
        "category": [
            "Cafe"
        ],
        "comment_count": 234,
        "price_range": 2,
        "avg_price": 50
    },
    {
        "type": "R",
        "name": "La Vita Patisserie",
        "rating": 4.6,
        "lon": 28.9927640185,
        "lat": 41.0524621254,
        "category": [
            "Patisserie",
            "Coffee and Tea"
        ],
        "comment_count": 157,
        "price_range": 2,
        "avg_price": 40
    },
    {
        "type": "R",
        "name": "Tarihi Çınaraltı Aile Çay Bahçesi",
        "rating": 4.5,
        "lon": 29.0526195243,
        "lat": 41.050279621,
        "category": [
            "Fast Food",
            "Izgara",
            "Seafood",
            "Coffee and Tea"
        ],
        "comment_count": 1086,
        "price_range": 2,
        "avg_price": 45
    },
    {
        "type": "R",
        "name": "Mangerie",
        "rating": 4.5,
        "lon": 29.0453299508,
        "lat": 41.078361952,
        "category": [
            "World Cuisine",
            "Cafe"
        ],
        "comment_count": 807,
        "price_range": 4,
        "avg_price": 275
    },
    {
        "type": "R",
        "name": "Baylan",
        "rating": 4.5,
        "lon": 29.0451264381,
        "lat": 41.078301801,
        "category": [
            "World Cuisine",
            "Cafe",
            "Patisserie"
        ],
        "comment_count": 797,
        "price_range": 4,
        "avg_price": 210
    },
    {
        "type": "R",
        "name": "FiLBooks",
        "rating": 4.5,
        "lon": 28.9788359776,
        "lat": 41.0251015053,
        "category": [
            "Cafe"
        ],
        "comment_count": 591,
        "price_range": 3,
        "avg_price": 60
    },
    {
        "type": "R",
        "name": "San Marco's Caffe",
        "rating": 4.5,
        "lon": 28.8700703904,
        "lat": 40.9789382571,
        "category": [
            "Italian",
            "Cafe"
        ],
        "comment_count": 452,
        "price_range": 3,
        "avg_price": 80
    },
    {
        "type": "R",
        "name": "Emek Cafe",
        "rating": 4.5,
        "lon": 29.0705229342,
        "lat": 41.1219735837,
        "category": [
            "Fast Food",
            "Izgara",
            "Turkish",
            "Coffee and Tea"
        ],
        "comment_count": 515,
        "price_range": 2,
        "avg_price": 55
    },
    {
        "type": "R",
        "name": "Cafe Naftalin K",
        "rating": 4.5,
        "lon": 28.9510506392,
        "lat": 41.0300126526,
        "category": [
            "Cafe"
        ],
        "comment_count": 335,
        "price_range": 2,
        "avg_price": 40
    },
    {
        "type": "R",
        "name": "Coffee Sapiens",
        "rating": 4.5,
        "lon": 28.9813059568,
        "lat": 41.0258352794,
        "category": [
            "Cafe"
        ],
        "comment_count": 279,
        "price_range": 2,
        "avg_price": 50
    },
    {
        "type": "R",
        "name": "Noir Pit Coffee Co.",
        "rating": 4.5,
        "lon": 28.9729622751,
        "lat": 41.0287702937,
        "category": [
            "Cafe"
        ],
        "comment_count": 220,
        "price_range": 2,
        "avg_price": 40
    },
    {
        "type": "R",
        "name": "Sunday",
        "rating": 4.5,
        "lon": 28.9946915209,
        "lat": 41.0492965601,
        "category": [
            "Cafe",
            "Coffee and Tea"
        ],
        "comment_count": 208,
        "price_range": 2,
        "avg_price": 40
    },
    {
        "type": "R",
        "name": "Federal Coffee Company",
        "rating": 4.5,
        "lon": 28.9737337455,
        "lat": 41.0258757493,
        "category": [
            "Cafe",
            "Coffee and Tea"
        ],
        "comment_count": 225,
        "price_range": 3,
        "avg_price": 60
    },
    {
        "type": "R",
        "name": "Gezi İstanbul",
        "rating": 4.5,
        "lon": 28.9873784781,
        "lat": 41.0360920833,
        "category": [
            "Cafe",
            "World Cuisine"
        ],
        "comment_count": 189,
        "price_range": 4,
        "avg_price": 120
    },
    {
        "type": "R",
        "name": "Tarihi Savoy Pastanesi",
        "rating": 4.5,
        "lon": 28.9832790568,
        "lat": 41.0320362413,
        "category": [
            "Patisserie",
            "Coffee and Tea"
        ],
        "comment_count": 155,
        "price_range": 3,
        "avg_price": 60
    },
    {
        "type": "R",
        "name": "Ceviz Ağacı",
        "rating": 4.4,
        "lon": 29.0409401804,
        "lat": 41.0098968089,
        "category": [
            "World Cuisine",
            "Patisserie",
            "Cafe"
        ],
        "comment_count": 1607,
        "price_range": 4,
        "avg_price": 150
    },
    {
        "type": "R",
        "name": "My Chef",
        "rating": 4.4,
        "lon": 29.0274503455,
        "lat": 40.9871351931,
        "category": [
            "World Cuisine",
            "Cafe"
        ],
        "comment_count": 1193,
        "price_range": 4,
        "avg_price": 125
    },
    {
        "type": "R",
        "name": "Mums Cafe",
        "rating": 4.4,
        "lon": 28.9792158455,
        "lat": 41.0246988241,
        "category": [
            "Cafe"
        ],
        "comment_count": 485,
        "price_range": 3,
        "avg_price": 110
    },
    {
        "type": "R",
        "name": "Payidar",
        "rating": 4.3,
        "lon": 28.9728543162,
        "lat": 41.026485324,
        "category": [
            "Cafe",
            "Turkish"
        ],
        "comment_count": 295,
        "price_range": 2,
        "avg_price": 50
    },
    {
        "type": "R",
        "name": "Parole",
        "rating": 4.4,
        "lon": 28.9752558991,
        "lat": 41.0300123997,
        "category": [
            "World Cuisine",
            "Cafe"
        ],
        "comment_count": 332,
        "price_range": 4,
        "avg_price": 150
    },
    {
        "type": "R",
        "name": "Brew Coffeeworks",
        "rating": 4.4,
        "lon": 28.9736864716,
        "lat": 41.0158060737,
        "category": [
            "Cafe"
        ],
        "comment_count": 336,
        "price_range": 2,
        "avg_price": 35
    },
    {
        "type": "R",
        "name": "Page Cafe & Gallery",
        "rating": 4.4,
        "lon": 29.0238317102,
        "lat": 40.9831752987,
        "category": [
            "Cafe"
        ],
        "comment_count": 235,
        "price_range": 2,
        "avg_price": 50
    },
    {
        "type": "R",
        "name": "Hale Jale Bütün Mahalle",
        "rating": 4.4,
        "lon": 29.0259372443,
        "lat": 40.9872450321,
        "category": [
            "Cafe"
        ],
        "comment_count": 247,
        "price_range": 2,
        "avg_price": 40
    },
    {
        "type": "R",
        "name": "Brew Lab",
        "rating": 4.4,
        "lon": 28.9782800898,
        "lat": 41.032074684,
        "category": [
            "Cafe"
        ],
        "comment_count": 213,
        "price_range": 2,
        "avg_price": 50
    },
    {
        "type": "R",
        "name": "Yeniköy Kahvesi",
        "rating": 4.4,
        "lon": 29.0690792352,
        "lat": 41.1203839061,
        "category": [
            "Turkish",
            "Fast Food",
            "Coffee and Tea"
        ],
        "comment_count": 255,
        "price_range": 2,
        "avg_price": 55
    },
    {
        "type": "R",
        "name": "İstisna Tatlar",
        "rating": 4.4,
        "lon": 29.0250179172,
        "lat": 40.9854777154,
        "category": [
            "Cafe"
        ],
        "comment_count": 221,
        "price_range": 2,
        "avg_price": 35
    },
    {
        "type": "R",
        "name": "Cafe Wien",
        "rating": 4.4,
        "lon": 28.9937953278,
        "lat": 41.0480434397,
        "category": [
            "Cafe",
            "European"
        ],
        "comment_count": 227,
        "price_range": 4,
        "avg_price": 200
    },
    {
        "type": "R",
        "name": "Mua Gelatieri d'Italia",
        "rating": 4.4,
        "lon": 29.0669066459,
        "lat": 41.1182811989,
        "category": [
            "Cafe",
            "Ice Cream"
        ],
        "comment_count": 279,
        "price_range": 2,
        "avg_price": 35
    },
    {
        "type": "R",
        "name": "Cup Of Joy",
        "rating": 4.4,
        "lon": 29.0435422584,
        "lat": 41.0775478874,
        "category": [
            "Cafe"
        ],
        "comment_count": 142,
        "price_range": 2,
        "avg_price": 50
    },
    {
        "type": "R",
        "name": "Cadıköy",
        "rating": 4.3,
        "lon": 29.0273692086,
        "lat": 40.9889505503,
        "category": [
            "Cafe",
            "Turkish"
        ],
        "comment_count": 578,
        "price_range": 2,
        "avg_price": 50
    },
    {
        "type": "R",
        "name": "Yumma",
        "rating": 4.3,
        "lon": 29.0238467976,
        "lat": 40.9848138522,
        "category": [
            "Cafe",
            "Turkish"
        ],
        "comment_count": 447,
        "price_range": 3,
        "avg_price": 75
    },
    {
        "type": "R",
        "name": "Gazebo Cafe & Restaurant",
        "rating": 4.3,
        "lon": 29.0669512376,
        "lat": 41.1179013153,
        "category": [
            "World Cuisine",
            "Cafe"
        ],
        "comment_count": 419,
        "price_range": 4,
        "avg_price": 350
    },
    {
        "type": "R",
        "name": "Cooklife",
        "rating": 4.3,
        "lon": 28.950426355,
        "lat": 41.0301214085,
        "category": [
            "Cafe",
            "Mediterranean"
        ],
        "comment_count": 212,
        "price_range": 3,
        "avg_price": 60
    },
    {
        "type": "R",
        "name": "Mambocino Coffee",
        "rating": 4.3,
        "lon": 29.0235608071,
        "lat": 40.9806166543,
        "category": [
            "Cafe",
            "Coffee and Tea"
        ],
        "comment_count": 210,
        "price_range": 2,
        "avg_price": 50
    },
    {
        "type": "R",
        "name": "İBB Beykoz Sahil Sosyal Tesisleri",
        "rating": 4.3,
        "lon": 29.0866939723,
        "lat": 41.1135587657,
        "category": [
            "Fresh Fish",
            "Seafood",
            "Izgara",
            "Coffee and Tea"
        ],
        "comment_count": 221,
        "price_range": 3,
        "avg_price": 90
    },
    {
        "type": "R",
        "name": "Cafe Zone",
        "rating": 4.3,
        "lon": 28.99019178,
        "lat": 41.0512381417,
        "category": [
            "World Cuisine",
            "Turkish",
            "Cafe"
        ],
        "comment_count": 199,
        "price_range": 4,
        "avg_price": 175
    },
    {
        "type": "R",
        "name": "Çaycı İzzet Efendi",
        "rating": 4.3,
        "lon": 29.0540900454,
        "lat": 41.0505322106,
        "category": [
            "Coffee and Tea"
        ],
        "comment_count": 186,
        "price_range": 2,
        "avg_price": 40
    },
    {
        "type": "R",
        "name": "Cumbalı Kahve",
        "rating": 4.3,
        "lon": 28.9458183199,
        "lat": 41.0329811177,
        "category": [
            "Cafe"
        ],
        "comment_count": 196,
        "price_range": 2,
        "avg_price": 35
    },
    {
        "type": "R",
        "name": "Kronotrop",
        "rating": 4.3,
        "lon": 28.9823805168,
        "lat": 41.0313313688,
        "category": [
            "Coffee and Tea"
        ],
        "comment_count": 193,
        "price_range": 3,
        "avg_price": 60
    },
    {
        "type": "R",
        "name": "İBB Sosyal Tesisleri",
        "rating": 4.3,
        "lon": 29.0447730571,
        "lat": 41.0675594219,
        "category": [
            "Fresh Fish",
            "Seafood",
            "Izgara",
            "Coffee and Tea"
        ],
        "comment_count": 194,
        "price_range": 3,
        "avg_price": 90
    },
    {
        "type": "R",
        "name": "Dem Moda",
        "rating": 4.3,
        "lon": 29.0263456106,
        "lat": 40.9832993179,
        "category": [
            "Cafe"
        ],
        "comment_count": 185,
        "price_range": 2,
        "avg_price": 35
    },
    {
        "type": "R",
        "name": "Old Java",
        "rating": 4.3,
        "lon": 28.9755978808,
        "lat": 41.025614971,
        "category": [
            "Cafe"
        ],
        "comment_count": 117,
        "price_range": 1,
        "avg_price": 25
    },
    {
        "type": "R",
        "name": "Caffe Nero",
        "rating": 4.3,
        "lon": 28.991198279,
        "lat": 41.0510083104,
        "category": [
            "Cafe"
        ],
        "comment_count": 197,
        "price_range": 2,
        "avg_price": 35
    },
    {
        "type": "R",
        "name": "Mambocino Coffee",
        "rating": 4.3,
        "lon": 28.8710151985,
        "lat": 40.9784105062,
        "category": [
            "Cafe",
            "Coffee and Tea"
        ],
        "comment_count": 125,
        "price_range": 2,
        "avg_price": 50
    },
    {
        "type": "R",
        "name": "Polka Cafe",
        "rating": 4.3,
        "lon": 29.024544172,
        "lat": 40.987313112,
        "category": [
            "Cafe",
            "Turkish"
        ],
        "comment_count": 188,
        "price_range": 2,
        "avg_price": 55
    },
    {
        "type": "R",
        "name": "İBB İstinye Sosyal Tesisleri",
        "rating": 4.3,
        "lon": 29.0550653636,
        "lat": 41.1144178515,
        "category": [
            "Fresh Fish",
            "Seafood",
            "Izgara",
            "Coffee and Tea"
        ],
        "comment_count": 157,
        "price_range": 3,
        "avg_price": 90
    },
    {
        "type": "R",
        "name": "Fazıl Bey'in Türk Kahvesi",
        "rating": 4.3,
        "lon": 29.0247329324,
        "lat": 40.9902179554,
        "category": [
            "Coffee and Tea"
        ],
        "comment_count": 163,
        "price_range": 1,
        "avg_price": 25
    },