[
    {
        "category": [
            "turkish", 
            "seafood"
        ], 
        "rating": 4.6, 
        "name": "Armada Teras Restaurant - Armada Otel", 
        "lon": 28.9813062921, 
        "comment_count": 420, 
        "avg_price": 250, 
        "lat": 41.0033111921, 
        "price_range": 4, 
        "main": [], 
        "type": "R"
    }, 
    {
        "category": [
            "turkish"
        ], 
        "rating": 4.5, 
        "name": "Neolokal", 
        "lon": 28.9733176678, 
        "comment_count": 173, 
        "avg_price": 280, 
        "lat": 41.0232871438, 
        "price_range": 4, 
        "main": [], 
        "type": "R"
    }, 
    {
        "category": [
            "italian", 
            "turkish"
        ], 
        "rating": 4.4, 
        "name": "Aida - Vino E Cucina", 
        "lon": 29.0256294608, 
        "comment_count": 242, 
        "avg_price": 160, 
        "lat": 40.9855389636, 
        "price_range": 4, 
        "main": [], 
        "type": "R"
    }, 
    {
        "category": [
            "turkish", 
            "seafood"
        ], 
        "rating": 4.4, 
        "name": "Nadide Meyhane", 
        "lon": 29.0077035874, 
        "comment_count": 313, 
        "avg_price": 300, 
        "lat": 41.0694885843, 
        "price_range": 4, 
        "main": [], 
        "type": "R"
    }, 
    {
        "category": [
            "agean", 
            "seafood"
        ], 
        "rating": 4.3, 
        "name": "Giritli Restaurant", 
        "lon": 28.9815718308, 
        "comment_count": 103, 
        "avg_price": 290, 
        "lat": 41.0035566244, 
        "price_range": 4, 
        "main": [], 
        "type": "R"
    }, 
    {
        "category": [
            "italian", 
            "turkish"
        ], 
        "rating": 4.2, 
        "name": "Ouzo Roof Restaurant - Wyndham Grand \u0130stanbul Kalam\u0131\u015f Marina Hotel", 
        "lon": 29.0413700044, 
        "comment_count": 305, 
        "avg_price": 350, 
        "lat": 40.9773028483, 
        "price_range": 4, 
        "main": [], 
        "type": "R"
    }, 
    {
        "category": [
            "seafood"
        ], 
        "rating": 4.2, 
        "name": "Moshonis Bal\u0131k Restaurant", 
        "lon": 29.0445933491, 
        "comment_count": 119, 
        "avg_price": 200, 
        "lat": 40.9794589166, 
        "price_range": 4, 
        "main": [], 
        "type": "R"
    }, 
    {
        "category": [
            "seafood"
        ], 
        "rating": 4.2, 
        "name": "Maria's Restaurant", 
        "lon": 29.0258353204, 
        "comment_count": 125, 
        "avg_price": 400, 
        "lat": 41.0785593378, 
        "price_range": 4, 
        "main": [], 
        "type": "R"
    }, 
    {
        "category": [
            "turkish"
        ], 
        "rating": 4.1, 
        "name": "Sakar Zeybek", 
        "lon": 29.0404268727, 
        "comment_count": 196, 
        "avg_price": 250, 
        "lat": 41.0107876092, 
        "price_range": 4, 
        "main": [], 
        "type": "R"
    }, 
    {
        "category": [
            "turkish"
        ], 
        "rating": 4.1, 
        "name": "Kamo's Mykonos", 
        "lon": 29.006004408, 
        "comment_count": 106, 
        "avg_price": 360, 
        "lat": 41.0507059129, 
        "price_range": 4, 
        "main": [], 
        "type": "R"
    }, 
    {
        "category": [
            "fastfood", 
            "meat"
        ], 
        "rating": 4.9, 
        "name": "The North Shield Pub", 
        "lon": 29.0534899011, 
        "comment_count": 479, 
        "avg_price": 200, 
        "lat": 40.9749204095, 
        "price_range": 4, 
        "main": [], 
        "type": "R"
    }, 
    {
        "category": [
            "fastfood", 
            "meat"
        ], 
        "rating": 4.6, 
        "name": "Biber Burger", 
        "lon": 29.0087694302, 
        "comment_count": 1427, 
        "avg_price": 60, 
        "lat": 41.0419977336, 
        "price_range": 3, 
        "main": [], 
        "type": "R"
    }, 
    {
        "category": [
            "fastfood", 
            "meat"
        ], 
        "rating": 4.6, 
        "name": "Virginia Angus", 
        "lon": 28.9676048979, 
        "comment_count": 1477, 
        "avg_price": 70, 
        "lat": 41.0160130073, 
        "price_range": 3, 
        "main": [], 
        "type": "R"
    }, 
    {
        "category": [
            "fastfood", 
            "meat"
        ], 
        "rating": 4.6, 
        "name": "Mini Eatery", 
        "lon": 29.0256804228, 
        "comment_count": 537, 
        "avg_price": 50, 
        "lat": 40.9870104219, 
        "price_range": 2, 
        "main": [], 
        "type": "R"
    }, 
    {
        "category": [
            "fastfood", 
            "meat"
        ], 
        "rating": 4.6, 
        "name": "Bebek Steakhouse & Burger Joint", 
        "lon": 29.0438815579, 
        "comment_count": 164, 
        "avg_price": 160, 
        "lat": 41.0778269097, 
        "price_range": 4, 
        "main": [], 
        "type": "R"
    }, 
    {
        "category": [
            "cafe", 
            "fastfood", 
            "meat", 
            "patisserie"
        ], 
        "rating": 4.5, 
        "name": "Mosquito", 
        "lon": 29.0270376205, 
        "comment_count": 691, 
        "avg_price": 100, 
        "lat": 40.9874586356, 
        "price_range": 3, 
        "main": [], 
        "type": "R"
    }, 
    {
        "category": [
            "fastfood", 
            "meat"
        ], 
        "rating": 4.5, 
        "name": "Nusr-Et Burger", 
        "lon": 29.0424513, 
        "comment_count": 422, 
        "avg_price": 130, 
        "lat": 41.078548, 
        "price_range": 4, 
        "main": [], 
        "type": "R"
    }, 
    {
        "category": [
            "fastfood", 
            "meat"
        ], 
        "rating": 4.5, 
        "name": "Carl's Jr.", 
        "lon": 28.9927794412, 
        "comment_count": 468, 
        "avg_price": 50, 
        "lat": 41.0624597097, 
        "price_range": 2, 
        "main": [], 
        "type": "R"
    }, 
    {
        "category": [
            "cafe", 
            "fastfood", 
            "meat", 
            "turkish"
        ], 
        "rating": 4.5, 
        "name": "Bam's", 
        "lon": 29.0444012359, 
        "comment_count": 381, 
        "avg_price": 90, 
        "lat": 41.0038131886, 
        "price_range": 3, 
        "main": [], 
        "type": "R"
    }, 
    {
        "category": [
            "fastfood", 
            "meat"
        ], 
        "rating": 4.5, 
        "name": "Daily Dana Burger & Steak", 
        "lon": 29.0638878196, 
        "comment_count": 306, 
        "avg_price": 140, 
        "lat": 40.9679477633, 
        "price_range": 4, 
        "main": [], 
        "type": "R"
    }, 
    {
        "category": [
            "fastfood", 
            "meat"
        ], 
        "rating": 4.4, 
        "name": "Nusr-Et Burger", 
        "lon": 28.9932538569, 
        "comment_count": 460, 
        "avg_price": 150, 
        "lat": 41.0481076639, 
        "price_range": 4, 
        "main": [], 
        "type": "R"
    }, 
    {
        "category": [
            "fastfood", 
            "meat"
        ], 
        "rating": 4.4, 
        "name": "Burger Joint", 
        "lon": 29.0021775663, 
        "comment_count": 506, 
        "avg_price": 65, 
        "lat": 41.0472016914, 
        "price_range": 3, 
        "main": [], 
        "type": "R"
    }, 
    {
        "category": [
            "fastfood", 
            "meat"
        ], 
        "rating": 4.4, 
        "name": "Nusr-Et Burger", 
        "lon": 29.0114476159, 
        "comment_count": 349, 
        "avg_price": 150, 
        "lat": 41.0780068583, 
        "price_range": 4, 
        "main": [], 
        "type": "R"
    }, 
    {
        "category": [], 
        "rating": 4.3, 
        "name": "BeerHall", 
        "lon": 29.0012002364, 
        "comment_count": 1012, 
        "avg_price": 125, 
        "lat": 41.0423601022, 
        "price_range": 4, 
        "main": [], 
        "type": "R"
    }, 
    {
        "category": [
            "fastfood", 
            "meat"
        ], 
        "rating": 4.3, 
        "name": "City Burger", 
        "lon": 29.0032474324, 
        "comment_count": 487, 
        "avg_price": 40, 
        "lat": 41.0432833366, 
        "price_range": 2, 
        "main": [], 
        "type": "R"
    }, 
    {
        "category": [
            "fastfood", 
            "meat"
        ], 
        "rating": 4.3, 
        "name": "Be\u015f B\u0131\u00e7ak Steakhouse - Kasap", 
        "lon": 28.6447641626, 
        "comment_count": 289, 
        "avg_price": 120, 
        "lat": 41.0171101491, 
        "price_range": 4, 
        "main": [], 
        "type": "R"
    }, 
    {
        "category": [
            "fastfood", 
            "meat"
        ], 
        "rating": 4.3, 
        "name": "HOPDADDY Burger", 
        "lon": 29.069834277, 
        "comment_count": 274, 
        "avg_price": 80, 
        "lat": 41.12097442, 
        "price_range": 3, 
        "main": [], 
        "type": "R"
    }, 
    {
        "category": [
            "fastfood", 
            "meat"
        ], 
        "rating": 4.3, 
        "name": "Nusr-Et Burger", 
        "lon": 29.0327336267, 
        "comment_count": 202, 
        "avg_price": 150, 
        "lat": 41.109862371, 
        "price_range": 4, 
        "main": [], 
        "type": "R"
    }, 
    {
        "category": [
            "asian"
        ], 
        "rating": 4.3, 
        "name": "Porter Bar. B.Q. & Craft Cocktails", 
        "lon": 29.0551133081, 
        "comment_count": 201, 
        "avg_price": 150, 
        "lat": 40.9741073434, 
        "price_range": 4, 
        "main": [], 
        "type": "R"
    }, 
    {
        "category": [
            "fastfood", 
            "meat"
        ], 
        "rating": 4.3, 
        "name": "Zula \u0130stanbul", 
        "lon": 28.984811604, 
        "comment_count": 123, 
        "avg_price": 80, 
        "lat": 41.0453295277, 
        "price_range": 3, 
        "main": [], 
        "type": "R"
    }, 
    {
        "category": [
            "fastfood", 
            "meat"
        ], 
        "rating": 4.3, 
        "name": "Kom\u015fu Kasap", 
        "lon": 29.0100515261, 
        "comment_count": 206, 
        "avg_price": 60, 
        "lat": 41.0865925112, 
        "price_range": 3, 
        "main": [], 
        "type": "R"
    }, 
    {
        "category": [
            "fastfood", 
            "meat"
        ], 
        "rating": 4.3, 
        "name": "Carl's Jr.", 
        "lon": 29.0100035816, 
        "comment_count": 101, 
        "avg_price": 50, 
        "lat": 41.0770247173, 
        "price_range": 2, 
        "main": [], 
        "type": "R"
    }, 
    {
        "category": [
            "fastfood", 
            "meat", 
            "turkish"
        ], 
        "rating": 4.2, 
        "name": "Baltazar", 
        "lon": 28.9810779691, 
        "comment_count": 1833, 
        "avg_price": 90, 
        "lat": 41.0258051799, 
        "price_range": 3, 
        "main": [], 
        "type": "R"
    }, 
    {
        "category": [
            "fastfood", 
            "meat"
        ], 
        "rating": 4.2, 
        "name": "Virginia Angus", 
        "lon": 28.9901555702, 
        "comment_count": 1098, 
        "avg_price": 70, 
        "lat": 41.0512260055, 
        "price_range": 3, 
        "main": [], 
        "type": "R"
    }, 
    {
        "category": [
            "meat", 
            "turkish", 
            "fastfood"
        ], 
        "rating": 4.2, 
        "name": "Num Num", 
        "lon": 29.0112471208, 
        "comment_count": 622, 
        "avg_price": 200, 
        "lat": 41.0781041618, 
        "price_range": 4, 
        "main": [], 
        "type": "R"
    }, 
    {
        "category": [
            "turkish", 
            "fastfood", 
            "meat"
        ], 
        "rating": 4.2, 
        "name": "Pi\u015fi Breakfast & Burger", 
        "lon": 29.0028551593, 
        "comment_count": 461, 
        "avg_price": 55, 
        "lat": 41.0432608312, 
        "price_range": 2, 
        "main": [], 
        "type": "R"
    }, 
    {
        "category": [
            "fastfood", 
            "meat"
        ], 
        "rating": 4.2, 
        "name": "Burger Yiyelim", 
        "lon": 28.8482640311, 
        "comment_count": 427, 
        "avg_price": 50, 
        "lat": 40.9951377767, 
        "price_range": 2, 
        "main": [], 
        "type": "R"
    }, 
    {
        "category": [
            "fastfood"
        ], 
        "rating": 4.2, 
        "name": "Black House", 
        "lon": 29.0214485675, 
        "comment_count": 166, 
        "avg_price": 110, 
        "lat": 40.9801248587, 
        "price_range": 3, 
        "main": [], 
        "type": "R"
    }, 
    {
        "category": [
            "fastfood", 
            "meat", 
            "turkish"
        ], 
        "rating": 4.1, 
        "name": "Cafe J. Burger", 
        "lon": 29.053578414, 
        "comment_count": 596, 
        "avg_price": 140, 
        "lat": 40.970048191, 
        "price_range": 4, 
        "main": [], 
        "type": "R"
    }, 
    {
        "category": [
            "fastfood", 
            "meat"
        ], 
        "rating": 4.1, 
        "name": "Dobby's Burger Place", 
        "lon": 29.0405747294, 
        "comment_count": 310, 
        "avg_price": 80, 
        "lat": 40.9833587965, 
        "price_range": 3, 
        "main": [], 
        "type": "R"
    }, 
    {
        "category": [
            "fastfood", 
            "meat"
        ], 
        "rating": 4.1, 
        "name": "Black Angus", 
        "lon": 28.9802860469, 
        "comment_count": 224, 
        "avg_price": 100, 
        "lat": 41.0276283246, 
        "price_range": 3, 
        "main": [], 
        "type": "R"
    }, 
    {
        "category": [
            "fastfood", 
            "meat"
        ], 
        "rating": 4.1, 
        "name": "Ora Steak & Burgers", 
        "lon": 29.0411359817, 
        "comment_count": 188, 
        "avg_price": 110, 
        "lat": 41.0225890072, 
        "price_range": 3, 
        "main": [], 
        "type": "R"
    }, 
    {
        "category": [
            "meat", 
            "turkish", 
            "fastfood"
        ], 
        "rating": 4.1, 
        "name": "\u00d6zg\u00fcr \u015eef'in Deli Kasap", 
        "lon": 29.0232798457, 
        "comment_count": 202, 
        "avg_price": 140, 
        "lat": 40.9820588621, 
        "price_range": 4, 
        "main": [], 
        "type": "R"
    }, 
    {
        "category": [
            "fastfood", 
            "meat"
        ], 
        "rating": 4.1, 
        "name": "Mezbaa", 
        "lon": 28.9810444415, 
        "comment_count": 145, 
        "avg_price": 75, 
        "lat": 41.0257624335, 
        "price_range": 3, 
        "main": [], 
        "type": "R"
    }, 
    {
        "category": [
            "fastfood", 
            "meat"
        ], 
        "rating": 4.1, 
        "name": "Retro Burger", 
        "lon": 29.0078309923, 
        "comment_count": 125, 
        "avg_price": 70, 
        "lat": 41.0656969378, 
        "price_range": 3, 
        "main": [], 
        "type": "R"
    }, 
    {
        "category": [
            "fastfood", 
            "meat"
        ], 
        "rating": 4.0, 
        "name": "Fireroom", 
        "lon": 29.1084976494, 
        "comment_count": 160, 
        "avg_price": 75, 
        "lat": 40.9851823566, 
        "price_range": 3, 
        "main": [], 
        "type": "R"
    }, 
    {
        "category": [
            "fastfood", 
            "meat"
        ], 
        "rating": 4.0, 
        "name": "Carl's Jr.", 
        "lon": 29.0288742632, 
        "comment_count": 159, 
        "avg_price": 50, 
        "lat": 40.9887065822, 
        "price_range": 2, 
        "main": [], 
        "type": "R"
    }, 
    {
        "category": [
            "fastfood", 
            "meat"
        ], 
        "rating": 4.0, 
        "name": "Burger Stop", 
        "lon": 28.9951599017, 
        "comment_count": 101, 
        "avg_price": 90, 
        "lat": 41.0541115976, 
        "price_range": 3, 
        "main": [], 
        "type": "R"
    }, 
    {
        "category": [
            "fastfood", 
            "meat"
        ], 
        "rating": 4.0, 
        "name": "Burger Lab", 
        "lon": 28.9798431471, 
        "comment_count": 342, 
        "avg_price": 75, 
        "lat": 41.0255868949, 
        "price_range": 3, 
        "main": [], 
        "type": "R"
    }, 
    {
        "category": [
            "cafe"
        ], 
        "rating": 4.4, 
        "name": "Arada Cafe", 
        "lon": 28.9781858772, 
        "comment_count": 488, 
        "avg_price": 110, 
        "lat": 41.0264944296, 
        "price_range": 3, 
        "main": [], 
        "type": "R"
    }, 
    {
        "category": [], 
        "rating": 4.4, 
        "name": "Tahin", 
        "lon": 29.0491078421, 
        "comment_count": 192, 
        "avg_price": 80, 
        "lat": 41.0861106041, 
        "price_range": 3, 
        "main": [], 
        "type": "R"
    }, 
    {
        "category": [
            "arabian"
        ], 
        "rating": 4.4, 
        "name": "Nomads", 
        "lon": 29.0307990834, 
        "comment_count": 161, 
        "avg_price": 580, 
        "lat": 41.0496950454, 
        "price_range": 4, 
        "main": [], 
        "type": "R"
    }, 
    {
        "category": [], 
        "rating": 4.3, 
        "name": "Tahin", 
        "lon": 28.9789560065, 
        "comment_count": 167, 
        "avg_price": 80, 
        "lat": 41.0246312887, 
        "price_range": 3, 
        "main": [], 
        "type": "R"
    }, 
    {
        "category": [], 
        "rating": 4.2, 
        "name": "Arabesque", 
        "lon": 28.9872252569, 
        "comment_count": 201, 
        "avg_price": 550, 
        "lat": 41.0422387229, 
        "price_range": 4, 
        "main": [], 
        "type": "R"
    }, 
    {
        "category": [
            "cafe", 
            "turkish"
        ], 
        "rating": 4.1, 
        "name": "Pim Karak\u00f6y", 
        "lon": 28.9809270948, 
        "comment_count": 707, 
        "avg_price": 170, 
        "lat": 41.0256830112, 
        "price_range": 4, 
        "main": [], 
        "type": "R"
    }, 
    {
        "category": [], 
        "rating": 4.0, 
        "name": "Tahin", 
        "lon": 29.0259677544, 
        "comment_count": 103, 
        "avg_price": 80, 
        "lat": 40.9856761392, 
        "price_range": 3, 
        "main": [], 
        "type": "R"
    }, 
    {
        "category": [
            "fastfood"
        ], 
        "rating": 4.0, 
        "name": "Upper West Side", 
        "lon": 28.9933651686, 
        "comment_count": 101, 
        "avg_price": 40, 
        "lat": 41.0621343602, 
        "price_range": 2, 
        "main": [], 
        "type": "R"
    }, 
    {
        "category": [
            "asian"
        ], 
        "rating": 4.9, 
        "name": "Miyabi Sushi & Japanese Grill Bar", 
        "lon": 29.0265605226, 
        "comment_count": 363, 
        "avg_price": 200, 
        "lat": 41.0817399216, 
        "price_range": 4, 
        "main": [], 
        "type": "R"
    }, 
    {
        "category": [
            "asian"
        ], 
        "rating": 4.9, 
        "name": "Yada Sushi", 
        "lon": 29.0489418805, 
        "comment_count": 237, 
        "avg_price": 250, 
        "lat": 41.1106070724, 
        "price_range": 4, 
        "main": [], 
        "type": "R"
    }, 
    {
        "category": [
            "asian"
        ], 
        "rating": 4.7, 
        "name": "Banyan Restaurant", 
        "lon": 29.0249877423, 
        "comment_count": 361, 
        "avg_price": 300, 
        "lat": 41.0474464544, 
        "price_range": 4, 
        "main": [], 
        "type": "R"
    }, 
    {
        "category": [
            "asian"
        ], 
        "rating": 4.7, 
        "name": "\u0130nari Omakase Japanese Restaurant", 
        "lon": 29.0362664312, 
        "comment_count": 258, 
        "avg_price": 180, 
        "lat": 41.0596887525, 
        "price_range": 4, 
        "main": [], 
        "type": "R"
    }, 
    {
        "category": [
            "asian"
        ], 
        "rating": 4.6, 
        "name": "Shang Palace - Shangri-La Bosphorus \u0130stanbul", 
        "lon": 29.0051886812, 
        "comment_count": 122, 
        "avg_price": 400, 
        "lat": 41.0402604608, 
        "price_range": 4, 
        "main": [], 
        "type": "R"
    }, 
    {
        "category": [
            "turkish", 
            "asian"
        ], 
        "rating": 4.5, 
        "name": "360 \u0130stanbul", 
        "lon": 28.9765447006, 
        "comment_count": 1490, 
        "avg_price": 220, 
        "lat": 41.0327089866, 
        "price_range": 4, 
        "main": [], 
        "type": "R"
    }, 
    {
        "category": [
            "italian", 
            "turkish", 
            "asian"
        ], 
        "rating": 4.5, 
        "name": "Sunset Grill & Bar", 
        "lon": 29.0331336111, 
        "comment_count": 583, 
        "avg_price": 450, 
        "lat": 41.0640057929, 
        "price_range": 4, 
        "main": [], 
        "type": "R"
    }, 
    {
        "category": [
            "asian"
        ], 
        "rating": 4.5, 
        "name": "Zuma", 
        "lon": 29.0315638483, 
        "comment_count": 190, 
        "avg_price": 300, 
        "lat": 41.1097428845, 
        "price_range": 4, 
        "main": [], 
        "type": "R"
    }, 
    {
        "category": [
            "asian", 
            "italian", 
            "turkish"
        ], 
        "rating": 4.5, 
        "name": "IST TOO - Shangri-La Bosphorus \u0130stanbul", 
        "lon": 29.0053921938, 
        "comment_count": 103, 
        "avg_price": 400, 
        "lat": 41.0401668946, 
        "price_range": 4, 
        "main": [], 
        "type": "R"
    }, 
    {
        "category": [
            "asian"
        ], 
        "rating": 4.4, 
        "name": "Wagamama", 
        "lon": 29.0118724108, 
        "comment_count": 413, 
        "avg_price": 80, 
        "lat": 41.0778959069, 
        "price_range": 3, 
        "main": [], 
        "type": "R"
    }, 
    {
        "category": [
            "asian"
        ], 
        "rating": 4.4, 
        "name": "\u0130oki Sushi Bar & Japanese Restaurant", 
        "lon": 29.0578592196, 
        "comment_count": 191, 
        "avg_price": 170, 
        "lat": 41.0739005218, 
        "price_range": 4, 
        "main": [], 
        "type": "R"
    }, 
    {
        "category": [
            "asian"
        ], 
        "rating": 4.4, 
        "name": "P.F. Chang's", 
        "lon": 29.1107671335, 
        "comment_count": 227, 
        "avg_price": 250, 
        "lat": 40.9940886033, 
        "price_range": 4, 
        "main": [], 
        "type": "R"
    }, 
    {
        "category": [
            "turkish", 
            "asian"
        ], 
        "rating": 4.4, 
        "name": "29", 
        "lon": 29.0321468934, 
        "comment_count": 345, 
        "avg_price": 450, 
        "lat": 41.064554851, 
        "price_range": 4, 
        "main": [], 
        "type": "R"
    }, 
    {
        "category": [
            "asian"
        ], 
        "rating": 4.4, 
        "name": "Pera Thai", 
        "lon": 28.9729807153, 
        "comment_count": 171, 
        "avg_price": 300, 
        "lat": 41.0281582109, 
        "price_range": 4, 
        "main": [], 
        "type": "R"
    }, 
    {
        "category": [
            "asian"
        ], 
        "rating": 4.3, 
        "name": "\u00c7in B\u00fcfe", 
        "lon": 28.9789808169, 
        "comment_count": 335, 
        "avg_price": 120, 
        "lat": 41.0338796989, 
        "price_range": 4, 
        "main": [], 
        "type": "R"
    }, 
    {
        "category": [
            "asian"
        ], 
        "rating": 4.3, 
        "name": "\u00c7ok \u00c7ok Thai", 
        "lon": 28.9751660451, 
        "comment_count": 196, 
        "avg_price": 180, 
        "lat": 41.0326500584, 
        "price_range": 4, 
        "main": [], 
        "type": "R"
    }, 
    {
        "category": [
            "asian"
        ], 
        "rating": 4.3, 
        "name": "\u0130oki Sushi Bar & Japanese Restaurant", 
        "lon": 29.0386006236, 
        "comment_count": 161, 
        "avg_price": 220, 
        "lat": 41.1207789297, 
        "price_range": 4, 
        "main": [], 
        "type": "R"
    }, 
    {
        "category": [
            "asian"
        ], 
        "rating": 4.3, 
        "name": "Cafe Bunka  Sushi & Japanese Restaurant", 
        "lon": 28.9831550047, 
        "comment_count": 135, 
        "avg_price": 120, 
        "lat": 41.03666894, 
        "price_range": 4, 
        "main": [], 
        "type": "R"
    }, 
    {
        "category": [
            "asian"
        ], 
        "rating": 4.2, 
        "name": "SushiCo", 
        "lon": 28.9912442118, 
        "comment_count": 229, 
        "avg_price": 200, 
        "lat": 41.0493491522, 
        "price_range": 4, 
        "main": [], 
        "type": "R"
    }, 
    {
        "category": [
            "asian"
        ], 
        "rating": 4.2, 
        "name": "\u00c7in B\u00fcfe", 
        "lon": 29.0031495318, 
        "comment_count": 229, 
        "avg_price": 120, 
        "lat": 41.0428342382, 
        "price_range": 4, 
        "main": [], 
        "type": "R"
    }, 
    {
        "category": [], 
        "rating": 4.2, 
        "name": "Konoha", 
        "lon": 29.0405348316, 
        "comment_count": 160, 
        "avg_price": 80, 
        "lat": 41.0014977485, 
        "price_range": 3, 
        "main": [], 
        "type": "R"
    }, 
    {
        "category": [
            "asian"
        ], 
        "rating": 4.2, 
        "name": "Far East", 
        "lon": 29.0319698676, 
        "comment_count": 159, 
        "avg_price": 140, 
        "lat": 41.1103597658, 
        "price_range": 4, 
        "main": [], 
        "type": "R"
    }, 
    {
        "category": [
            "asian"
        ], 
        "rating": 4.2, 
        "name": "Chinese & Sushi Express", 
        "lon": 29.0661160648, 
        "comment_count": 131, 
        "avg_price": 120, 
        "lat": 40.9678538412, 
        "price_range": 4, 
        "main": [], 
        "type": "R"
    }, 
    {
        "category": [
            "asian"
        ], 
        "rating": 4.2, 
        "name": "SushiCo", 
        "lon": 29.0874527022, 
        "comment_count": 150, 
        "avg_price": 200, 
        "lat": 40.9570298797, 
        "price_range": 4, 
        "main": [], 
        "type": "R"
    }, 
    {
        "category": [
            "asian"
        ], 
        "rating": 4.2, 
        "name": "Hai Sushi", 
        "lon": 29.0405123681, 
        "comment_count": 101, 
        "avg_price": 300, 
        "lat": 40.9763085728, 
        "price_range": 4, 
        "main": [], 
        "type": "R"
    }, 
    {
        "category": [
            "asian"
        ], 
        "rating": 4.2, 
        "name": "Fenix \u0130stanbul", 
        "lon": 29.0326172858, 
        "comment_count": 144, 
        "avg_price": 350, 
        "lat": 41.0794297488, 
        "price_range": 4, 
        "main": [], 
        "type": "R"
    }, 
    {
        "category": [
            "asian"
        ], 
        "rating": 4.2, 
        "name": "\u0130oki Sushi Bar & Japanese Restaurant", 
        "lon": 29.0276800096, 
        "comment_count": 102, 
        "avg_price": 220, 
        "lat": 41.0747919727, 
        "price_range": 4, 
        "main": [], 
        "type": "R"
    }, 
    {
        "category": [
            "asian", 
            "seafood"
        ], 
        "rating": 4.2, 
        "name": "Kawaii Chinese & Sushi", 
        "lon": 29.1221645102, 
        "comment_count": 111, 
        "avg_price": 150, 
        "lat": 40.9907613023, 
        "price_range": 4, 
        "main": [], 
        "type": "R"
    }, 
    {
        "category": [
            "asian"
        ], 
        "rating": 4.2, 
        "name": "Noodle House", 
        "lon": 29.0076700598, 
        "comment_count": 110, 
        "avg_price": 70, 
        "lat": 41.0477683366, 
        "price_range": 3, 
        "main": [], 
        "type": "R"
    }, 
    {
        "category": [
            "seafood", 
            "fastfood", 
            "asian"
        ], 
        "rating": 4.1, 
        "name": "Dardenia Fish & Sushi", 
        "lon": 29.0661837906, 
        "comment_count": 345, 
        "avg_price": 145, 
        "lat": 40.9678578917, 
        "price_range": 4, 
        "main": [], 
        "type": "R"
    }, 
    {
        "category": [
            "asian", 
            "meat", 
            "turkish"
        ], 
        "rating": 4.1, 
        "name": "Dubb Indian Restaurant", 
        "lon": 28.9773510396, 
        "comment_count": 160, 
        "avg_price": 220, 
        "lat": 41.0081855075, 
        "price_range": 4, 
        "main": [], 
        "type": "R"
    }, 
    {
        "category": [
            "seafood", 
            "fastfood", 
            "asian"
        ], 
        "rating": 4.1, 
        "name": "Dardenia Fish & Bread", 
        "lon": 28.9949389547, 
        "comment_count": 102, 
        "avg_price": 145, 
        "lat": 41.0490609065, 
        "price_range": 4, 
        "main": [], 
        "type": "R"
    }, 
    {
        "category": [
            "asian"
        ], 
        "rating": 4.1, 
        "name": "Naomi", 
        "lon": 28.9900633693, 
        "comment_count": 115, 
        "avg_price": 200, 
        "lat": 41.0503506698, 
        "price_range": 4, 
        "main": [], 
        "type": "R"
    }, 
    {
        "category": [
            "asian"
        ], 
        "rating": 4.0, 
        "name": "SushiCo", 
        "lon": 29.0116595104, 
        "comment_count": 200, 
        "avg_price": 200, 
        "lat": 41.078118315, 
        "price_range": 4, 
        "main": [], 
        "type": "R"
    }, 
    {
        "category": [
            "asian"
        ], 
        "rating": 4.0, 
        "name": "Sopung", 
        "lon": 28.933824, 
        "comment_count": 182, 
        "avg_price": 60, 
        "lat": 41.028359, 
        "price_range": 3, 
        "main": [], 
        "type": "R"
    }, 
    {
        "category": [
            "asian"
        ], 
        "rating": 4.0, 
        "name": "Great Dong Fang", 
        "lon": 28.9929279685, 
        "comment_count": 185, 
        "avg_price": 160, 
        "lat": 41.0624526314, 
        "price_range": 4, 
        "main": [], 
        "type": "R"
    }, 
    {
        "category": [
            "asian"
        ], 
        "rating": 4.0, 
        "name": "Sushi Express", 
        "lon": 28.9733300731, 
        "comment_count": 131, 
        "avg_price": 120, 
        "lat": 41.0284943513, 
        "price_range": 4, 
        "main": [], 
        "type": "R"
    }, 
    {
        "category": [
            "patisserie"
        ], 
        "rating": 4.8, 
        "name": "J'adore Chocolatier", 
        "lon": 28.976338841, 
        "comment_count": 1821, 
        "avg_price": 60, 
        "lat": 41.0328091391, 
        "price_range": 3, 
        "main": [], 
        "type": "R"
    }, 
    {
        "category": [
            "patisserie"
        ], 
        "rating": 4.8, 
        "name": "Karak\u00f6y G\u00fcll\u00fco\u011flu", 
        "lon": 28.9776651934, 
        "comment_count": 1761, 
        "avg_price": 50, 
        "lat": 41.0230048547, 
        "price_range": 2, 
        "main": [], 
        "type": "R"
    }, 
    {
        "category": [
            "cafe", 
            "patisserie", 
            "meat", 
            "turkish"
        ], 
        "rating": 4.8, 
        "name": "b.blokbakery", 
        "lon": 29.0019552782, 
        "comment_count": 475, 
        "avg_price": 50, 
        "lat": 41.0437215586, 
        "price_range": 2, 
        "main": [], 
        "type": "R"
    }, 
    {
        "category": [
            "patisserie"
        ], 
        "rating": 4.8, 
        "name": "Haf\u0131z Mustafa", 
        "lon": 28.9851505682, 
        "comment_count": 279, 
        "avg_price": 50, 
        "lat": 41.0365108803, 
        "price_range": 2, 
        "main": [], 
        "type": "R"
    }, 
    {
        "category": [
            "patisserie", 
            "cafe"
        ], 
        "rating": 4.7, 
        "name": "Mendel's", 
        "lon": 29.0025530756, 
        "comment_count": 1215, 
        "avg_price": 65, 
        "lat": 41.0427740547, 
        "price_range": 3, 
        "main": [], 
        "type": "R"
    }, 
    {
        "category": [
            "patisserie"
        ], 
        "rating": 4.7, 
        "name": "\u00c7ikolata D\u00fckkan\u0131", 
        "lon": 29.0236419439, 
        "comment_count": 850, 
        "avg_price": 60, 
        "lat": 40.9834471283, 
        "price_range": 3, 
        "main": [], 
        "type": "R"
    }, 
    {
        "category": [
            "patisserie"
        ], 
        "rating": 4.7, 
        "name": "Pasta Sanat\u0131", 
        "lon": 29.0028906986, 
        "comment_count": 342, 
        "avg_price": 40, 
        "lat": 41.0449047182, 
        "price_range": 2, 
        "main": [], 
        "type": "R"
    }, 
    {
        "category": [
            "patisserie"
        ], 
        "rating": 4.6, 
        "name": "Asuman", 
        "lon": 29.0263573453, 
        "comment_count": 693, 
        "avg_price": 55, 
        "lat": 40.9836858008, 
        "price_range": 2, 
        "main": [], 
        "type": "R"
    }, 
    {
        "category": [
            "patisserie", 
            "cafe"
        ], 
        "rating": 4.6, 
        "name": "MOC \u0130stanbul", 
        "lon": 28.9959716052, 
        "comment_count": 848, 
        "avg_price": 70, 
        "lat": 41.0492533233, 
        "price_range": 3, 
        "main": [], 
        "type": "R"
    }, 
    {
        "category": [
            "patisserie"
        ], 
        "rating": 4.6, 
        "name": "Haf\u0131z Mustafa", 
        "lon": 28.9733897522, 
        "comment_count": 505, 
        "avg_price": 50, 
        "lat": 41.0159464749, 
        "price_range": 2, 
        "main": [], 
        "type": "R"
    }, 
    {
        "category": [
            "patisserie", 
            "cafe"
        ], 
        "rating": 4.6, 
        "name": "\u015eekerci Cafer Erol", 
        "lon": 29.0248365328, 
        "comment_count": 409, 
        "avg_price": 50, 
        "lat": 40.9907868625, 
        "price_range": 2, 
        "main": [], 
        "type": "R"
    }, 
    {
        "category": [
            "patisserie", 
            "cafe"
        ], 
        "rating": 4.6, 
        "name": "H\u00fcmaliva \u00c7ikolata & Kahve", 
        "lon": 28.9937832579, 
        "comment_count": 289, 
        "avg_price": 60, 
        "lat": 41.0530545142, 
        "price_range": 3, 
        "main": [], 
        "type": "R"
    }, 
    {
        "category": [
            "patisserie", 
            "turkish"
        ], 
        "rating": 4.6, 
        "name": "Gaziburma", 
        "lon": 29.2329977453, 
        "comment_count": 370, 
        "avg_price": 35, 
        "lat": 40.8782645321, 
        "price_range": 2, 
        "main": [], 
        "type": "R"
    }, 
    {
        "category": [
            "patisserie", 
            "vegaterian-vegan", 
            "cafe"
        ], 
        "rating": 4.6, 
        "name": "Le Pain Quotidien", 
        "lon": 29.0871271491, 
        "comment_count": 252, 
        "avg_price": 150, 
        "lat": 40.9573686618, 
        "price_range": 4, 
        "main": [], 
        "type": "R"
    }, 
    {
        "category": [
            "patisserie"
        ], 
        "rating": 4.6, 
        "name": "Me\u015fhur Sar\u0131yer B\u00f6rek\u00e7isi", 
        "lon": 29.0575779229, 
        "comment_count": 193, 
        "avg_price": 40, 
        "lat": 41.1688916279, 
        "price_range": 2, 
        "main": [], 
        "type": "R"
    }, 
    {
        "category": [
            "patisserie", 
            "cafe"
        ], 
        "rating": 4.5, 
        "name": "Baylan", 
        "lon": 29.0237254277, 
        "comment_count": 919, 
        "avg_price": 45, 
        "lat": 40.9903541089, 
        "price_range": 2, 
        "main": [], 
        "type": "R"
    }, 
    {
        "category": [
            "patisserie"
        ], 
        "rating": 4.5, 
        "name": "Kemal Usta Waffles", 
        "lon": 29.0230686218, 
        "comment_count": 581, 
        "avg_price": 45, 
        "lat": 40.9813534548, 
        "price_range": 2, 
        "main": [], 
        "type": "R"
    }, 
    {
        "category": [
            "patisserie"
        ], 
        "rating": 4.5, 
        "name": "Beyaz F\u0131r\u0131n", 
        "lon": 29.0247895941, 
        "comment_count": 478, 
        "avg_price": 75, 
        "lat": 40.990693226, 
        "price_range": 3, 
        "main": [], 
        "type": "R"
    }, 
    {
        "category": [
            "patisserie"
        ], 
        "rating": 4.5, 
        "name": "Haf\u0131z Mustafa", 
        "lon": 28.9758614078, 
        "comment_count": 322, 
        "avg_price": 50, 
        "lat": 41.0145098149, 
        "price_range": 2, 
        "main": [], 
        "type": "R"
    }, 
    {
        "category": [
            "cafe", 
            "patisserie"
        ], 
        "rating": 4.5, 
        "name": "Edebiyat K\u0131raathanesi - Haf\u0131z Mustafa", 
        "lon": 28.9770043641, 
        "comment_count": 300, 
        "avg_price": 60, 
        "lat": 41.0079471767, 
        "price_range": 3, 
        "main": [], 
        "type": "R"
    }, 
    {
        "category": [
            "cafe", 
            "patisserie"
        ], 
        "rating": 4.5, 
        "name": "180\u00b0 Coffee Bakery", 
        "lon": 29.0268890932, 
        "comment_count": 262, 
        "avg_price": 55, 
        "lat": 40.9846759156, 
        "price_range": 2, 
        "main": [], 
        "type": "R"
    }, 
    {
        "category": [
            "patisserie"
        ], 
        "rating": 4.5, 
        "name": "Karak\u00f6y Galata Simit\u00e7isi", 
        "lon": 28.9791937172, 
        "comment_count": 123, 
        "avg_price": 15, 
        "lat": 41.0248437593, 
        "price_range": 1, 
        "main": [], 
        "type": "R"
    }, 
    {
        "category": [
            "patisserie"
        ], 
        "rating": 4.5, 
        "name": "Ali Muhiddin Hac\u0131 Bekir", 
        "lon": 28.9813532308, 
        "comment_count": 157, 
        "avg_price": 35, 
        "lat": 41.0351325833, 
        "price_range": 2, 
        "main": [], 
        "type": "R"
    }, 
    {
        "category": [
            "patisserie"
        ], 
        "rating": 4.5, 
        "name": "Salih \u00d6zkan Pasta & Baklava", 
        "lon": 28.9288248494, 
        "comment_count": 120, 
        "avg_price": 30, 
        "lat": 41.0144723738, 
        "price_range": 2, 
        "main": [], 
        "type": "R"
    }, 
    {
        "category": [
            "patisserie"
        ], 
        "rating": 4.4, 
        "name": "\u00c7ikolata Kahve", 
        "lon": 29.053158313, 
        "comment_count": 673, 
        "avg_price": 35, 
        "lat": 41.0499805071, 
        "price_range": 2, 
        "main": [], 
        "type": "R"
    }, 
    {
        "category": [
            "patisserie"
        ], 
        "rating": 4.4, 
        "name": "K\u00f6\u015fkero\u011flu Baklava", 
        "lon": 28.9772712439, 
        "comment_count": 494, 
        "avg_price": 45, 
        "lat": 41.0232165716, 
        "price_range": 2, 
        "main": [], 
        "type": "R"
    }, 
    {
        "category": [
            "patisserie", 
            "vegaterian-vegan", 
            "cafe"
        ], 
        "rating": 4.4, 
        "name": "Le Pain Quotidien", 
        "lon": 29.0116528049, 
        "comment_count": 367, 
        "avg_price": 150, 
        "lat": 41.0779570692, 
        "price_range": 4, 
        "main": [], 
        "type": "R"
    }, 
    {
        "category": [
            "patisserie", 
            "cafe"
        ], 
        "rating": 4.4, 
        "name": "Hane \u00c7ikolata & Kahve", 
        "lon": 29.0259640664, 
        "comment_count": 332, 
        "avg_price": 40, 
        "lat": 40.9860013604, 
        "price_range": 2, 
        "main": [], 
        "type": "R"
    }, 
    {
        "category": [
            "cafe", 
            "patisserie"
        ], 
        "rating": 4.4, 
        "name": "The Crepe Escape", 
        "lon": 29.0655273199, 
        "comment_count": 296, 
        "avg_price": 60, 
        "lat": 40.9672485341, 
        "price_range": 3, 
        "main": [], 
        "type": "R"
    }, 
    {
        "category": [
            "meat", 
            "turkish", 
            "patisserie"
        ], 
        "rating": 4.4, 
        "name": "Ka\u015f\u0131beyaz Akvaryum", 
        "lon": 28.8000972569, 
        "comment_count": 280, 
        "avg_price": 300, 
        "lat": 40.9632530137, 
        "price_range": 4, 
        "main": [], 
        "type": "R"
    }, 
    {
        "category": [
            "patisserie"
        ], 
        "rating": 4.4, 
        "name": "Baltepe Pastanesi", 
        "lon": 28.9468563348, 
        "comment_count": 196, 
        "avg_price": 30, 
        "lat": 41.0234163994, 
        "price_range": 2, 
        "main": [], 
        "type": "R"
    }, 
    {
        "category": [
            "patisserie", 
            "homeMade"
        ], 
        "rating": 4.4, 
        "name": "\u015eirin F\u0131r\u0131n", 
        "lon": 28.973428309, 
        "comment_count": 181, 
        "avg_price": 45, 
        "lat": 41.0261752257, 
        "price_range": 2, 
        "main": [], 
        "type": "R"
    }, 
    {
        "category": [
            "patisserie"
        ], 
        "rating": 4.4, 
        "name": "Ab'bas Waffle", 
        "lon": 29.0445266292, 
        "comment_count": 304, 
        "avg_price": 35, 
        "lat": 41.0779499926, 
        "price_range": 2, 
        "main": [], 
        "type": "R"
    }, 
    {
        "category": [
            "cafe", 
            "patisserie"
        ], 
        "rating": 4.4, 
        "name": "It's OK Coffee & Restarting Co.", 
        "lon": 28.9832897857, 
        "comment_count": 112, 
        "avg_price": 50, 
        "lat": 41.0306421696, 
        "price_range": 2, 
        "main": [], 
        "type": "R"
    }, 
    {
        "category": [
            "patisserie", 
            "cafe"
        ], 
        "rating": 4.4, 
        "name": "G\u00f6reme Muhallebicisi", 
        "lon": 28.9832669869, 
        "comment_count": 132, 
        "avg_price": 80, 
        "lat": 41.050732714, 
        "price_range": 3, 
        "main": [], 
        "type": "R"
    }, 
    {
        "category": [
            "patisserie"
        ], 
        "rating": 4.4, 
        "name": "Maria's Cheesecakes", 
        "lon": 29.1183829308, 
        "comment_count": 135, 
        "avg_price": 60, 
        "lat": 40.9920527139, 
        "price_range": 3, 
        "main": [], 
        "type": "R"
    }, 
    {
        "category": [
            "patisserie"
        ], 
        "rating": 4.4, 
        "name": "Kafadaro\u011flu Baklava & B\u00f6rek", 
        "lon": 29.0043310449, 
        "comment_count": 111, 
        "avg_price": 25, 
        "lat": 41.0426514118, 
        "price_range": 1, 
        "main": [], 
        "type": "R"
    }, 
    {
        "category": [
            "cafe", 
            "patisserie"
        ], 
        "rating": 4.3, 
        "name": "Valonia", 
        "lon": 29.0027931333, 
        "comment_count": 1718, 
        "avg_price": 90, 
        "lat": 41.0443845756, 
        "price_range": 3, 
        "main": [], 
        "type": "R"
    }, 
    {
        "category": [
            "cafe", 
            "turkish", 
            "patisserie"
        ], 
        "rating": 4.3, 
        "name": "Emirgan S\u00fcti\u015f", 
        "lon": 29.0565013513, 
        "comment_count": 1227, 
        "avg_price": 110, 
        "lat": 41.1047399196, 
        "price_range": 3, 
        "main": [], 
        "type": "R"
    }, 
    {
        "category": [
            "patisserie"
        ], 
        "rating": 4.3, 
        "name": "Naan Bakeshop", 
        "lon": 29.0243825689, 
        "comment_count": 571, 
        "avg_price": 70, 
        "lat": 40.9841431486, 
        "price_range": 3, 
        "main": [], 
        "type": "R"
    }, 
    {
        "category": [
            "meat", 
            "turkish", 
            "patisserie"
        ], 
        "rating": 4.3, 
        "name": "Ka\u015f\u0131beyaz Bosphorus", 
        "lon": 29.0670980886, 
        "comment_count": 552, 
        "avg_price": 300, 
        "lat": 41.1281579071, 
        "price_range": 4, 
        "main": [], 
        "type": "R"
    }, 
    {
        "category": [
            "patisserie", 
            "cafe"
        ], 
        "rating": 4.3, 
        "name": "Moda \u00c7ikolatac\u0131s\u0131", 
        "lon": 29.0276746452, 
        "comment_count": 419, 
        "avg_price": 70, 
        "lat": 40.9843441073, 
        "price_range": 3, 
        "main": [], 
        "type": "R"
    }, 
    {
        "category": [
            "patisserie", 
            "cafe", 
            "turkish"
        ], 
        "rating": 4.3, 
        "name": "Kire\u00e7burnu F\u0131r\u0131n\u0131", 
        "lon": 29.0454992652, 
        "comment_count": 365, 
        "avg_price": 95, 
        "lat": 41.1481454451, 
        "price_range": 3, 
        "main": [], 
        "type": "R"
    }, 
    {
        "category": [
            "cafe", 
            "patisserie"
        ], 
        "rating": 4.3, 
        "name": "Espressolab", 
        "lon": 28.984186314, 
        "comment_count": 326, 
        "avg_price": 45, 
        "lat": 41.0361745279, 
        "price_range": 2, 
        "main": [], 
        "type": "R"
    }, 
    {
        "category": [
            "meat", 
            "turkish", 
            "patisserie"
        ], 
        "rating": 4.3, 
        "name": "Develi", 
        "lon": 28.8073459268, 
        "comment_count": 328, 
        "avg_price": 300, 
        "lat": 40.9622828318, 
        "price_range": 4, 
        "main": [], 
        "type": "R"
    }, 
    {
        "category": [
            "patisserie", 
            "cafe"
        ], 
        "rating": 4.3, 
        "name": "Beyaz F\u0131r\u0131n & Brasserie", 
        "lon": 29.0808524564, 
        "comment_count": 278, 
        "avg_price": 150, 
        "lat": 40.957219527, 
        "price_range": 4, 
        "main": [], 
        "type": "R"
    }, 
    {
        "category": [
            "cafe", 
            "patisserie"
        ], 
        "rating": 4.3, 
        "name": "\u00c7ikolata Mahzeni", 
        "lon": 29.0035800263, 
        "comment_count": 239, 
        "avg_price": 50, 
        "lat": 41.0436838812, 
        "price_range": 2, 
        "main": [], 
        "type": "R"
    }, 
    {
        "category": [
            "patisserie", 
            "cafe", 
            "fastfood"
        ], 
        "rating": 4.3, 
        "name": "La Patisserie Lune", 
        "lon": 28.9935452119, 
        "comment_count": 230, 
        "avg_price": 50, 
        "lat": 41.0505463698, 
        "price_range": 2, 
        "main": [], 
        "type": "R"
    }, 
    {
        "category": [
            "patisserie", 
            "cafe"
        ], 
        "rating": 4.3, 
        "name": "Beyaz F\u0131r\u0131n & Brasserie", 
        "lon": 29.0317841247, 
        "comment_count": 179, 
        "avg_price": 150, 
        "lat": 41.0788848587, 
        "price_range": 4, 
        "main": [], 
        "type": "R"
    }, 
    {
        "category": [
            "patisserie"
        ], 
        "rating": 4.2, 
        "name": "Chocolate Saray\u0131", 
        "lon": 29.0022064, 
        "comment_count": 200, 
        "avg_price": 75, 
        "lat": 41.0475475958, 
        "price_range": 3, 
        "main": [], 
        "type": "R"
    }, 
    {
        "category": [
            "patisserie"
        ], 
        "rating": 4.3, 
        "name": "Tarihi Sar\u0131yer Muhallebicisi", 
        "lon": 29.0571725741, 
        "comment_count": 194, 
        "avg_price": 50, 
        "lat": 41.1684449021, 
        "price_range": 2, 
        "main": [], 
        "type": "R"
    }, 
    {
        "category": [
            "meat", 
            "turkish", 
            "patisserie"
        ], 
        "rating": 4.3, 
        "name": "Hac\u0131ba\u015far Kebap Baklava", 
        "lon": 29.0827776119, 
        "comment_count": 104, 
        "avg_price": 90, 
        "lat": 40.9723794179, 
        "price_range": 3, 
        "main": [], 
        "type": "R"
    }, 
    {
        "category": [
            "patisserie", 
            "cafe"
        ], 
        "rating": 4.3, 
        "name": "Zeynel Muhallebicisi", 
        "lon": 29.0632856637, 
        "comment_count": 158, 
        "avg_price": 80, 
        "lat": 41.1165517508, 
        "price_range": 3, 
        "main": [], 
        "type": "R"
    }, 
    {
        "category": [
            "patisserie", 
            "cafe"
        ], 
        "rating": 4.3, 
        "name": "Coffee Manifesto", 
        "lon": 29.0242404118, 
        "comment_count": 117, 
        "avg_price": 40, 
        "lat": 40.9890112892, 
        "price_range": 2, 
        "main": [], 
        "type": "R"
    }, 
    {
        "category": [
            "patisserie", 
            "cafe"
        ], 
        "rating": 4.3, 
        "name": "Chocca", 
        "lon": 29.0240405872, 
        "comment_count": 118, 
        "avg_price": 50, 
        "lat": 40.9846792058, 
        "price_range": 2, 
        "main": [], 
        "type": "R"
    }, 
    {
        "category": [
            "patisserie", 
            "cafe"
        ], 
        "rating": 4.2, 
        "name": "Willy Wonka Chocolate ", 
        "lon": 28.9757625014, 
        "comment_count": 536, 
        "avg_price": 45, 
        "lat": 41.0261529673, 
        "price_range": 2, 
        "main": [], 
        "type": "R"
    }, 
    {
        "category": [
            "patisserie", 
            "cafe"
        ], 
        "rating": 4.2, 
        "name": "Me\u015fhur Dondurmac\u0131 Ali Usta", 
        "lon": 29.0229683742, 
        "comment_count": 864, 
        "avg_price": 30, 
        "lat": 40.9815523972, 
        "price_range": 2, 
        "main": [], 
        "type": "R"
    }, 
    {
        "category": [
            "cafe", 
            "meat", 
            "turkish", 
            "patisserie"
        ], 
        "rating": 4.2, 
        "name": "Emirgan S\u00fcti\u015f", 
        "lon": 29.0528843924, 
        "comment_count": 641, 
        "avg_price": 110, 
        "lat": 41.0499170432, 
        "price_range": 3, 
        "main": [], 
        "type": "R"
    }, 
    {
        "category": [
            "patisserie", 
            "cafe"
        ], 
        "rating": 4.2, 
        "name": "Grandma", 
        "lon": 28.994999975, 
        "comment_count": 436, 
        "avg_price": 55, 
        "lat": 41.0488224707, 
        "price_range": 2, 
        "main": [], 
        "type": "R"
    }, 
    {
        "category": [
            "patisserie"
        ], 
        "rating": 4.2, 
        "name": "S\u00fcleymaniye \u00c7ikolatac\u0131s\u0131", 
        "lon": 28.9607609063, 
        "comment_count": 239, 
        "avg_price": 40, 
        "lat": 41.0129625687, 
        "price_range": 2, 
        "main": [], 
        "type": "R"
    }, 
    {
        "category": [
            "patisserie", 
            "turkish"
        ], 
        "rating": 4.2, 
        "name": "Saray Muhallebicisi", 
        "lon": 28.9803474024, 
        "comment_count": 365, 
        "avg_price": 55, 
        "lat": 41.0347534833, 
        "price_range": 2, 
        "main": [], 
        "type": "R"
    }, 
    {
        "category": [
            "meat", 
            "turkish", 
            "patisserie"
        ], 
        "rating": 4.2, 
        "name": "Develi", 
        "lon": 29.0401874855, 
        "comment_count": 312, 
        "avg_price": 240, 
        "lat": 40.9763698295, 
        "price_range": 4, 
        "main": [], 
        "type": "R"
    }, 
    {
        "category": [
            "patisserie"
        ], 
        "rating": 4.2, 
        "name": "Backhaus", 
        "lon": 28.9924676344, 
        "comment_count": 227, 
        "avg_price": 90, 
        "lat": 41.0514368731, 
        "price_range": 3, 
        "main": [], 
        "type": "R"
    }, 
    {
        "category": [
            "patisserie", 
            "cafe"
        ], 
        "rating": 4.2, 
        "name": "Beyaz F\u0131r\u0131n", 
        "lon": 29.0704099461, 
        "comment_count": 227, 
        "avg_price": 75, 
        "lat": 40.96419356, 
        "price_range": 3, 
        "main": [], 
        "type": "R"
    }, 
    {
        "category": [
            "patisserie", 
            "cafe"
        ], 
        "rating": 4.2, 
        "name": "Rumeli \u00c7ikolatac\u0131s\u0131", 
        "lon": 29.0527214482, 
        "comment_count": 158, 
        "avg_price": 70, 
        "lat": 41.0113679765, 
        "price_range": 3, 
        "main": [], 
        "type": "R"
    }, 
    {
        "category": [
            "cafe", 
            "patisserie"
        ], 
        "rating": 4.2, 
        "name": "700gr Bakery and Cafe", 
        "lon": 29.026407972, 
        "comment_count": 139, 
        "avg_price": 90, 
        "lat": 40.9847414672, 
        "price_range": 3, 
        "main": [], 
        "type": "R"
    }, 
    {
        "category": [
            "french", 
            "patisserie", 
            "cafe"
        ], 
        "rating": 4.2, 
        "name": "Fauchon", 
        "lon": 29.0176807344, 
        "comment_count": 115, 
        "avg_price": 210, 
        "lat": 41.0657884454, 
        "price_range": 4, 
        "main": [], 
        "type": "R"
    }, 
    {
        "category": [
            "patisserie", 
            "cafe"
        ], 
        "rating": 4.2, 
        "name": "F\u0131st\u0131kzade", 
        "lon": 29.120827429, 
        "comment_count": 125, 
        "avg_price": 45, 
        "lat": 40.9925590982, 
        "price_range": 2, 
        "main": [], 
        "type": "R"
    }, 
    {
        "category": [
            "patisserie", 
            "cafe"
        ], 
        "rating": 4.2, 
        "name": "Pare Baklava Bar", 
        "lon": 28.9950147271, 
        "comment_count": 106, 
        "avg_price": 50, 
        "lat": 41.0499261455, 
        "price_range": 2, 
        "main": [], 
        "type": "R"
    }, 
    {
        "category": [
            "patisserie", 
            "cafe"
        ], 
        "rating": 4.2, 
        "name": "Hac\u0131 \u015eerif", 
        "lon": 28.9715433866, 
        "comment_count": 162, 
        "avg_price": 25, 
        "lat": 41.0151045691, 
        "price_range": 1, 
        "main": [], 
        "type": "R"
    }, 
    {
        "category": [
            "patisserie", 
            "vegaterian-vegan", 
            "cafe"
        ], 
        "rating": 4.2, 
        "name": "Le Pain Quotidien", 
        "lon": 29.030909054, 
        "comment_count": 119, 
        "avg_price": 150, 
        "lat": 41.1094379783, 
        "price_range": 4, 
        "main": [], 
        "type": "R"
    }, 
    {
        "category": [
            "patisserie", 
            "cafe"
        ], 
        "rating": 4.2, 
        "name": "OD46", 
        "lon": 29.0253810212, 
        "comment_count": 115, 
        "avg_price": 40, 
        "lat": 40.986634082, 
        "price_range": 2, 
        "main": [], 
        "type": "R"
    }, 
    {
        "category": [
            "cafe", 
            "turkish", 
            "patisserie"
        ], 
        "rating": 4.2, 
        "name": "Emirgan S\u00fcti\u015f", 
        "lon": 29.0451398492, 
        "comment_count": 131, 
        "avg_price": 110, 
        "lat": 41.0677169015, 
        "price_range": 3, 
        "main": [], 
        "type": "R"
    }, 
    {
        "category": [
            "patisserie"
        ], 
        "rating": 4.2, 
        "name": "Gazebo Lounge - \u00c7\u0131ra\u011fan Palace Kempinski", 
        "lon": 29.017165, 
        "comment_count": 112, 
        "avg_price": 500, 
        "lat": 41.044675, 
        "price_range": 4, 
        "main": [], 
        "type": "R"
    }, 
    {
        "category": [
            "patisserie"
        ], 
        "rating": 4.2, 
        "name": "Hatay Ekol K\u00fcnefe", 
        "lon": 29.0318169817, 
        "comment_count": 117, 
        "avg_price": 45, 
        "lat": 41.0179188905, 
        "price_range": 2, 
        "main": [], 
        "type": "R"
    }, 
    {
        "category": [
            "meat", 
            "turkish", 
            "patisserie"
        ], 
        "rating": 4.2, 
        "name": "Hac\u0131ba\u015far Kebap Baklava", 
        "lon": 29.0640319884, 
        "comment_count": 126, 
        "avg_price": 80, 
        "lat": 40.9754421133, 
        "price_range": 3, 
        "main": [], 
        "type": "R"
    }, 
    {
        "category": [
            "patisserie", 
            "turkish"
        ], 
        "rating": 4.2, 
        "name": "Bebek Waffle & Kumpir", 
        "lon": 29.0442698076, 
        "comment_count": 110, 
        "avg_price": 45, 
        "lat": 41.077914104, 
        "price_range": 2, 
        "main": [], 
        "type": "R"
    }, 
    {
        "category": [
            "patisserie"
        ], 
        "rating": 4.2, 
        "name": "Hac\u0131 Bekir K\u00fcn\u00e7", 
        "lon": 29.0876461565, 
        "comment_count": 113, 
        "avg_price": 55, 
        "lat": 41.0247992417, 
        "price_range": 2, 
        "main": [], 
        "type": "R"
    }, 
    {
        "category": [
            "patisserie", 
            "cafe"
        ], 
        "rating": 4.1, 
        "name": "Maia Chocolates", 
        "lon": 29.0535163879, 
        "comment_count": 295, 
        "avg_price": 60, 
        "lat": 41.05047077, 
        "price_range": 3, 
        "main": [], 
        "type": "R"
    }, 
    {
        "category": [
            "meat", 
            "turkish", 
            "patisserie"
        ], 
        "rating": 4.1, 
        "name": "Develi", 
        "lon": 29.1077063978, 
        "comment_count": 280, 
        "avg_price": 200, 
        "lat": 40.985341805, 
        "price_range": 4, 
        "main": [], 
        "type": "R"
    }, 
    {
        "category": [
            "agean", 
            "turkish"
        ], 
        "rating": 4.9, 
        "name": "Eleos Restaurant", 
        "lon": 28.9753682166, 
        "comment_count": 1082, 
        "avg_price": 270, 
        "lat": 41.0293864176, 
        "price_range": 4, 
        "main": [], 
        "type": "R"
    }, 
    {
        "category": [
            "agean", 
            "turkish"
        ], 
        "rating": 4.7, 
        "name": "Eleos Restaurant", 
        "lon": 28.8218385726, 
        "comment_count": 418, 
        "avg_price": 350, 
        "lat": 40.9575436225, 
        "price_range": 4, 
        "main": [], 
        "type": "R"
    }, 
    {
        "category": [
            "turkish"
        ], 
        "rating": 4.7, 
        "name": "Lipa", 
        "lon": 29.2241789773, 
        "comment_count": 288, 
        "avg_price": 130, 
        "lat": 40.8864432972, 
        "price_range": 4, 
        "main": [], 
        "type": "R"
    }, 
    {
        "category": [
            "turkish"
        ], 
        "rating": 4.7, 
        "name": "Asitane Restaurant", 
        "lon": 28.9388764277, 
        "comment_count": 272, 
        "avg_price": 180, 
        "lat": 41.0310508845, 
        "price_range": 4, 
        "main": [], 
        "type": "R"
    }, 
    {
        "category": [
            "turkish", 
            "italian"
        ], 
        "rating": 4.4, 
        "name": "Hidiv Kasr\u0131 Restoran", 
        "lon": 29.0738720074, 
        "comment_count": 346, 
        "avg_price": 100, 
        "lat": 41.1049321735, 
        "price_range": 3, 
        "main": [], 
        "type": "R"
    }, 
    {
        "category": [
            "turkish"
        ], 
        "rating": 4.4, 
        "name": "Matbah Ottoman Place Cuisine", 
        "lon": 28.97931844, 
        "comment_count": 148, 
        "avg_price": 320, 
        "lat": 41.0090421758, 
        "price_range": 4, 
        "main": [], 
        "type": "R"
    }, 
    {
        "category": [
            "meat", 
            "turkish"
        ], 
        "rating": 4.4, 
        "name": "Borsa Restaurant", 
        "lon": 29.0583876148, 
        "comment_count": 120, 
        "avg_price": 550, 
        "lat": 41.0720634932, 
        "price_range": 4, 
        "main": [], 
        "type": "R"
    }, 
    {
        "category": [
            "turkish", 
            "meat"
        ], 
        "rating": 4.3, 
        "name": "E\u015fraf Lokantas\u0131", 
        "lon": 28.7956058979, 
        "comment_count": 289, 
        "avg_price": 140, 
        "lat": 40.9874411728, 
        "price_range": 4, 
        "main": [], 
        "type": "R"
    }, 
    {
        "category": [
            "turkish", 
            "agean"
        ], 
        "rating": 4.3, 
        "name": "Barba Vasilis", 
        "lon": 28.952839002, 
        "comment_count": 253, 
        "avg_price": 230, 
        "lat": 41.0286691234, 
        "price_range": 4, 
        "main": [], 
        "type": "R"
    }, 
    {
        "category": [
            "turkish"
        ], 
        "rating": 4.3, 
        "name": "Tu\u011fra Restaurant - \u00c7\u0131ra\u011fan Palace Kempinski", 
        "lon": 29.015411, 
        "comment_count": 199, 
        "avg_price": 450, 
        "lat": 41.043599, 
        "price_range": 4, 
        "main": [], 
        "type": "R"
    }, 
    {
        "category": [
            "italian", 
            "turkish", 
            "agean"
        ], 
        "rating": 4.3, 
        "name": "Kydonia", 
        "lon": 29.0353403986, 
        "comment_count": 171, 
        "avg_price": 430, 
        "lat": 41.0592842604, 
        "price_range": 4, 
        "main": [], 
        "type": "R"
    }, 
    {
        "category": [
            "turkish", 
            "meat", 
            "homeMade"
        ], 
        "rating": 4.3, 
        "name": "G\u00fcler Osmanl\u0131 Mutfa\u011f\u0131", 
        "lon": 29.0413693339, 
        "comment_count": 150, 
        "avg_price": 50, 
        "lat": 40.9948533426, 
        "price_range": 2, 
        "main": [], 
        "type": "R"
    }, 
    {
        "category": [
            "turkish"
        ], 
        "rating": 4.2, 
        "name": "Galata Kulesi Restaurant", 
        "lon": 28.9740080014, 
        "comment_count": 288, 
        "avg_price": 180, 
        "lat": 41.0253984559, 
        "price_range": 4, 
        "main": [], 
        "type": "R"
    }, 
    {
        "category": [
            "turkish"
        ], 
        "rating": 4.2, 
        "name": "Deraliye Ottoman Cuisine Restaurant", 
        "lon": 28.976079002, 
        "comment_count": 125, 
        "avg_price": 260, 
        "lat": 41.0085872777, 
        "price_range": 4, 
        "main": [], 
        "type": "R"
    }, 
    {
        "category": [
            "turkish", 
            "meat"
        ], 
        "rating": 4.1, 
        "name": "Sandzak Balkan Mutfa\u011f\u0131", 
        "lon": 29.2342335731, 
        "comment_count": 164, 
        "avg_price": 170, 
        "lat": 40.8715149273, 
        "price_range": 4, 
        "main": [], 
        "type": "R"
    }, 
    {
        "category": [
            "turkish"
        ], 
        "rating": 4.0, 
        "name": "Avliya Bo\u015fnak Mutfa\u011f\u0131", 
        "lon": 28.8902355731, 
        "comment_count": 239, 
        "avg_price": 80, 
        "lat": 41.0597426003, 
        "price_range": 3, 
        "main": [], 
        "type": "R"
    }, 
    {
        "category": [
            "turkish"
        ], 
        "rating": 4.0, 
        "name": "Sar\u0131 K\u00f6\u015fk Restoran", 
        "lon": 29.0535227582, 
        "comment_count": 201, 
        "avg_price": 80, 
        "lat": 41.1078740171, 
        "price_range": 3, 
        "main": [], 
        "type": "R"
    }, 
    {
        "category": [
            "turkish", 
            "agean"
        ], 
        "rating": 4.0, 
        "name": "O Maestros", 
        "lon": 29.0432676673, 
        "comment_count": 129, 
        "avg_price": 230, 
        "lat": 41.0673602336, 
        "price_range": 4, 
        "main": [], 
        "type": "R"
    }, 
    {
        "category": [
            "fastfood"
        ], 
        "rating": 4.7, 
        "name": "Draft Gastro Pub", 
        "lon": 29.0742451698, 
        "comment_count": 924, 
        "avg_price": 180, 
        "lat": 40.9640239335, 
        "price_range": 4, 
        "main": [], 
        "type": "R"
    }, 
    {
        "category": [
            "fastfood"
        ], 
        "rating": 4.7, 
        "name": "The Populist", 
        "lon": 28.9803695306, 
        "comment_count": 567, 
        "avg_price": 150, 
        "lat": 41.0581627928, 
        "price_range": 4, 
        "main": [], 
        "type": "R"
    }, 
    {
        "category": [
            "turkish", 
            "fastfood"
        ], 
        "rating": 4.5, 
        "name": "Palivor \u00c7iftli\u011fi", 
        "lon": 28.9937363192, 
        "comment_count": 185, 
        "avg_price": 120, 
        "lat": 41.0479142324, 
        "price_range": 4, 
        "main": [], 
        "type": "R"
    }, 
    {
        "category": [
            "fastfood"
        ], 
        "rating": 4.5, 
        "name": "Solera", 
        "lon": 28.9782968536, 
        "comment_count": 201, 
        "avg_price": 170, 
        "lat": 41.032071902, 
        "price_range": 4, 
        "main": [], 
        "type": "R"
    }, 
    {
        "category": [
            "fastfood", 
            "cafe"
        ], 
        "rating": 4.4, 
        "name": "Joker No:19", 
        "lon": 29.004261978, 
        "comment_count": 847, 
        "avg_price": 220, 
        "lat": 41.0417355019, 
        "price_range": 4, 
        "main": [], 
        "type": "R"
    }, 
    {
        "category": [
            "fastfood", 
            "cafe"
        ], 
        "rating": 4.4, 
        "name": "Old English Pub", 
        "lon": 29.0762048587, 
        "comment_count": 391, 
        "avg_price": 130, 
        "lat": 40.9622618178, 
        "price_range": 4, 
        "main": [], 
        "type": "R"
    }, 
    {
        "category": [
            "fastfood", 
            "cafe"
        ], 
        "rating": 4.4, 
        "name": "Zeplin", 
        "lon": 29.0254373476, 
        "comment_count": 311, 
        "avg_price": 140, 
        "lat": 40.9864392044, 
        "price_range": 4, 
        "main": [], 
        "type": "R"
    }, 
    {
        "category": [
            "fastfood", 
            "cafe"
        ], 
        "rating": 4.4, 
        "name": "The North Shield", 
        "lon": 28.6859364063, 
        "comment_count": 161, 
        "avg_price": 175, 
        "lat": 41.0673488586, 
        "price_range": 4, 
        "main": [], 
        "type": "R"
    }, 
    {
        "category": [
            "fastfood"
        ], 
        "rating": 4.3, 
        "name": "Varuna Gezgin", 
        "lon": 28.9755184203, 
        "comment_count": 514, 
        "avg_price": 110, 
        "lat": 41.0293669425, 
        "price_range": 3, 
        "main": [], 
        "type": "R"
    }, 
    {
        "category": [
            "fastfood", 
            "cafe"
        ], 
        "rating": 4.3, 
        "name": "ANY", 
        "lon": 29.0431593731, 
        "comment_count": 300, 
        "avg_price": 200, 
        "lat": 41.0673306587, 
        "price_range": 4, 
        "main": [], 
        "type": "R"
    }, 
    {
        "category": [
            "cafe", 
            "fastfood"
        ], 
        "rating": 4.3, 
        "name": "Kafe Pi Asmal\u0131mescit Bomonti Brasserie", 
        "lon": 28.9741977677, 
        "comment_count": 343, 
        "avg_price": 150, 
        "lat": 41.0290095609, 
        "price_range": 4, 
        "main": [], 
        "type": "R"
    }, 
    {
        "category": [
            "fastfood"
        ], 
        "rating": 4.3, 
        "name": "Draft Gastro Pub", 
        "lon": 29.0256106853, 
        "comment_count": 338, 
        "avg_price": 180, 
        "lat": 40.9867750515, 
        "price_range": 4, 
        "main": [], 
        "type": "R"
    }, 
    {
        "category": [
            "fastfood"
        ], 
        "rating": 4.3, 
        "name": "Draft Gastro Pub", 
        "lon": 29.0518289432, 
        "comment_count": 199, 
        "avg_price": 160, 
        "lat": 40.9757134684, 
        "price_range": 4, 
        "main": [], 
        "type": "R"
    }, 
    {
        "category": [
            "fastfood"
        ], 
        "rating": 4.3, 
        "name": "The United Pub", 
        "lon": 29.0045147762, 
        "comment_count": 190, 
        "avg_price": 140, 
        "lat": 41.0437172598, 
        "price_range": 4, 
        "main": [], 
        "type": "R"
    }, 
    {
        "category": [
            "fastfood", 
            "cafe"
        ], 
        "rating": 4.3, 
        "name": "Kilit Bar", 
        "lon": 29.0069643036, 
        "comment_count": 173, 
        "avg_price": 125, 
        "lat": 41.0464054468, 
        "price_range": 4, 
        "main": [], 
        "type": "R"
    }, 
    {
        "category": [
            "fastfood"
        ], 
        "rating": 4.3, 
        "name": "Parantez Bistro", 
        "lon": 28.9741642401, 
        "comment_count": 154, 
        "avg_price": 150, 
        "lat": 41.0293525259, 
        "price_range": 4, 
        "main": [], 
        "type": "R"
    }, 
    {
        "category": [
            "fastfood", 
            "cafe"
        ], 
        "rating": 4.2, 
        "name": "Kosmos", 
        "lon": 29.0042857826, 
        "comment_count": 328, 
        "avg_price": 160, 
        "lat": 41.0418156635, 
        "price_range": 4, 
        "main": [], 
        "type": "R"
    }, 
    {
        "category": [
            "fastfood"
        ], 
        "rating": 4.2, 
        "name": "Bosphorus Brewing Company", 
        "lon": 29.0061509237, 
        "comment_count": 284, 
        "avg_price": 150, 
        "lat": 41.0664145868, 
        "price_range": 4, 
        "main": [], 
        "type": "R"
    }, 
    {
        "category": [
            "meat", 
            "turkish", 
            "fastfood"
        ], 
        "rating": 4.2, 
        "name": "Bibu\u00e7uk", 
        "lon": 29.0658907592, 
        "comment_count": 285, 
        "avg_price": 130, 
        "lat": 40.9675758715, 
        "price_range": 4, 
        "main": [], 
        "type": "R"
    }, 
    {
        "category": [
            "fastfood", 
            "cafe"
        ], 
        "rating": 4.2, 
        "name": "Karga Bar", 
        "lon": 29.0267040208, 
        "comment_count": 382, 
        "avg_price": 120, 
        "lat": 40.9863329073, 
        "price_range": 4, 
        "main": [], 
        "type": "R"
    }, 
    {
        "category": [
            "fastfood"
        ], 
        "rating": 4.2, 
        "name": "Kozmonot Pub", 
        "lon": 28.9965201169, 
        "comment_count": 240, 
        "avg_price": 200, 
        "lat": 41.0512447156, 
        "price_range": 4, 
        "main": [], 
        "type": "R"
    }, 
    {
        "category": [
            "meat", 
            "turkish", 
            "fastfood"
        ], 
        "rating": 4.2, 
        "name": "bibu\u00e7uk", 
        "lon": 29.0872277319, 
        "comment_count": 221, 
        "avg_price": 130, 
        "lat": 40.9572162354, 
        "price_range": 4, 
        "main": [], 
        "type": "R"
    }, 
    {
        "category": [
            "fastfood"
        ], 
        "rating": 4.2, 
        "name": "Bistro \u015eair Leyla", 
        "lon": 29.0044721961, 
        "comment_count": 127, 
        "avg_price": 150, 
        "lat": 41.043204694, 
        "price_range": 4, 
        "main": [], 
        "type": "R"
    }, 
    {
        "category": [
            "fastfood"
        ], 
        "rating": 4.2, 
        "name": "James Joyce Irish Pub", 
        "lon": 28.9783451334, 
        "comment_count": 171, 
        "avg_price": 150, 
        "lat": 41.0350706224, 
        "price_range": 4, 
        "main": [], 
        "type": "R"
    }, 
    {
        "category": [
            "fastfood"
        ], 
        "rating": 4.2, 
        "name": "Draft Gastro Pub", 
        "lon": 29.0385624021, 
        "comment_count": 141, 
        "avg_price": 130, 
        "lat": 40.99965718, 
        "price_range": 4, 
        "main": [], 
        "type": "R"
    }, 
    {
        "category": [
            "cafe", 
            "fastfood"
        ], 
        "rating": 4.1, 
        "name": "OT", 
        "lon": 29.0652091429, 
        "comment_count": 234, 
        "avg_price": 100, 
        "lat": 40.9673308116, 
        "price_range": 3, 
        "main": [], 
        "type": "R"
    }, 
    {
        "category": [
            "fastfood"
        ], 
        "rating": 4.1, 
        "name": "Oblomov", 
        "lon": 29.0255577117, 
        "comment_count": 147, 
        "avg_price": 150, 
        "lat": 40.9886276214, 
        "price_range": 4, 
        "main": [], 
        "type": "R"
    }, 
    {
        "category": [
            "fastfood"
        ], 
        "rating": 4.1, 
        "name": "Corner Irish Pub", 
        "lon": 28.9766509831, 
        "comment_count": 100, 
        "avg_price": 180, 
        "lat": 41.0338751466, 
        "price_range": 4, 
        "main": [], 
        "type": "R"
    }, 
    {
        "category": [
            "fastfood"
        ], 
        "rating": 4.1, 
        "name": "Kiki", 
        "lon": 28.9840642735, 
        "comment_count": 127, 
        "avg_price": 200, 
        "lat": 41.0332567885, 
        "price_range": 4, 
        "main": [], 
        "type": "R"
    }, 
    {
        "category": [
            "fastfood", 
            "cafe"
        ], 
        "rating": 4.0, 
        "name": "Thales Bistro", 
        "lon": 29.0058428049, 
        "comment_count": 604, 
        "avg_price": 120, 
        "lat": 41.0433422552, 
        "price_range": 4, 
        "main": [], 
        "type": "R"
    }, 
    {
        "category": [
            "fastfood", 
            "cafe"
        ], 
        "rating": 4.0, 
        "name": "Thales Cafe", 
        "lon": 29.0274902433, 
        "comment_count": 490, 
        "avg_price": 140, 
        "lat": 40.9867079834, 
        "price_range": 4, 
        "main": [], 
        "type": "R"
    }, 
    {
        "category": [
            "fastfood"
        ], 
        "rating": 4.0, 
        "name": "Beer's Cafe & Restaurant", 
        "lon": 29.0946604684, 
        "comment_count": 169, 
        "avg_price": 200, 
        "lat": 40.9526037779, 
        "price_range": 4, 
        "main": [], 
        "type": "R"
    }, 
    {
        "category": [
            "fastfood", 
            "cafe"
        ], 
        "rating": 4.0, 
        "name": "Hobo Kitchen Bar", 
        "lon": 29.025442712, 
        "comment_count": 202, 
        "avg_price": 110, 
        "lat": 41.047441903, 
        "price_range": 3, 
        "main": [], 
        "type": "R"
    }, 
    {
        "category": [
            "fastfood"
        ], 
        "rating": 4.0, 
        "name": "Belfast Irish Pub \u0130stanbul", 
        "lon": 29.0263026953, 
        "comment_count": 179, 
        "avg_price": 130, 
        "lat": 40.9854065966, 
        "price_range": 4, 
        "main": [], 
        "type": "R"
    }, 
    {
        "category": [
            "fastfood", 
            "meat", 
            "turkish"
        ], 
        "rating": 4.0, 
        "name": "Kazan", 
        "lon": 29.0063333139, 
        "comment_count": 136, 
        "avg_price": 150, 
        "lat": 41.0414249697, 
        "price_range": 4, 
        "main": [], 
        "type": "R"
    }, 
    {
        "category": [
            "fastfood"
        ], 
        "rating": 4.0, 
        "name": "Shine Beer Cafe", 
        "lon": 29.0218760446, 
        "comment_count": 121, 
        "avg_price": 120, 
        "lat": 40.9891110019, 
        "price_range": 4, 
        "main": [], 
        "type": "R"
    }, 
    {
        "category": [
            "fastfood", 
            "cafe"
        ], 
        "rating": 4.0, 
        "name": "The North Shield", 
        "lon": 29.1253077239, 
        "comment_count": 118, 
        "avg_price": 170, 
        "lat": 40.9924616682, 
        "price_range": 4, 
        "main": [], 
        "type": "R"
    }, 
    {
        "category": [
            "fastfood"
        ], 
        "rating": 4.0, 
        "name": "Peyote", 
        "lon": 28.9771937951, 
        "comment_count": 130, 
        "avg_price": 120, 
        "lat": 41.0350402743, 
        "price_range": 4, 
        "main": [], 
        "type": "R"
    }, 
    {
        "category": [
            "fastfood"
        ], 
        "rating": 4.0, 
        "name": "Kuka Cafe & Pub", 
        "lon": 29.0063363314, 
        "comment_count": 101, 
        "avg_price": 120, 
        "lat": 41.0441152732, 
        "price_range": 4, 
        "main": [], 
        "type": "R"
    }, 
    {
        "category": [
            "fastfood", 
            "cafe"
        ], 
        "rating": 4.1, 
        "name": "Bambi Cafe", 
        "lon": 28.9848555252, 
        "comment_count": 551, 
        "avg_price": 40, 
        "lat": 41.0358328629, 
        "price_range": 2, 
        "main": [], 
        "type": "R"
    }, 
    {
        "category": [
            "turkish", 
            "fastfood", 
            "cafe"
        ], 
        "rating": 4.1, 
        "name": "Baazen Tantuni", 
        "lon": 29.0139206126, 
        "comment_count": 271, 
        "avg_price": 55, 
        "lat": 41.0775625462, 
        "price_range": 2, 
        "main": [], 
        "type": "R"
    }, 
    {
        "category": [
            "fastfood", 
            "cafe", 
            "turkish"
        ], 
        "rating": 4.1, 
        "name": "Patatos", 
        "lon": 28.976091072, 
        "comment_count": 128, 
        "avg_price": 50, 
        "lat": 41.0317843394, 
        "price_range": 2, 
        "main": [], 
        "type": "R"
    }, 
    {
        "category": [
            "cafe"
        ], 
        "rating": 4.1, 
        "name": "Stuff Healthy Drinks & Design Bar", 
        "lon": 29.0262876078, 
        "comment_count": 123, 
        "avg_price": 60, 
        "lat": 40.9845982154, 
        "price_range": 3, 
        "main": [], 
        "type": "R"
    }, 
    {
        "category": [
            "fastfood", 
            "cafe"
        ], 
        "rating": 4.1, 
        "name": "Morg\u00fcl", 
        "lon": 28.8749949262, 
        "comment_count": 128, 
        "avg_price": 50, 
        "lat": 40.9785654148, 
        "price_range": 2, 
        "main": [], 
        "type": "R"
    }, 
    {
        "category": [
            "fastfood", 
            "cafe"
        ], 
        "rating": 4.0, 
        "name": "Taksim Hamburger", 
        "lon": 28.8720820472, 
        "comment_count": 229, 
        "avg_price": 35, 
        "lat": 40.9874692651, 
        "price_range": 2, 
        "main": [], 
        "type": "R"
    }, 
    {
        "category": [
            "turkish", 
            "meat"
        ], 
        "rating": 4.4, 
        "name": "\u00c7\u00f6mlek Kuru Fasulye", 
        "lon": 29.0708739683, 
        "comment_count": 529, 
        "avg_price": 80, 
        "lat": 41.0259397422, 
        "price_range": 3, 
        "main": [], 
        "type": "R"
    }, 
    {
        "category": [
            "turkish", 
            "homeMade"
        ], 
        "rating": 4.3, 
        "name": "Anzer Sofras\u0131", 
        "lon": 29.0373922884, 
        "comment_count": 225, 
        "avg_price": 90, 
        "lat": 41.1530544728, 
        "price_range": 3, 
        "main": [], 
        "type": "R"
    }, 
    {
        "category": [
            "turkish"
        ], 
        "rating": 4.4, 
        "name": "Pideban Karadeniz Pidecisi", 
        "lon": 29.0359056741, 
        "comment_count": 218, 
        "avg_price": 60, 
        "lat": 41.156185001, 
        "price_range": 3, 
        "main": [], 
        "type": "R"
    }, 
    {
        "category": [
            "turkish"
        ], 
        "rating": 4.4, 
        "name": "Ha\u00e7apuri Karadeniz Pidesi", 
        "lon": 29.0381587297, 
        "comment_count": 171, 
        "avg_price": 60, 
        "lat": 40.9936918059, 
        "price_range": 3, 
        "main": [], 
        "type": "R"
    }, 
    {
        "category": [
            "turkish", 
            "meat"
        ], 
        "rating": 4.3, 
        "name": "Cemil Usta K\u00f6fte & Bal\u0131k", 
        "lon": 29.1342823952, 
        "comment_count": 409, 
        "avg_price": 90, 
        "lat": 40.9389832977, 
        "price_range": 3, 
        "main": [], 
        "type": "R"
    }, 
    {
        "category": [
            "turkish"
        ], 
        "rating": 4.3, 
        "name": "Pidesun Samsun Pide", 
        "lon": 29.025692828, 
        "comment_count": 299, 
        "avg_price": 70, 
        "lat": 40.9865032356, 
        "price_range": 3, 
        "main": [], 
        "type": "R"
    }, 
    {
        "category": [
            "homeMade", 
            "turkish"
        ], 
        "rating": 4.3, 
        "name": "Laz \u0130stanbul", 
        "lon": 29.0275298059, 
        "comment_count": 207, 
        "avg_price": 60, 
        "lat": 40.9915081123, 
        "price_range": 3, 
        "main": [], 
        "type": "R"
    }, 
    {
        "category": [
            "turkish"
        ], 
        "rating": 4.1, 
        "name": "Nalia", 
        "lon": 28.8269907609, 
        "comment_count": 282, 
        "avg_price": 150, 
        "lat": 41.0203485966, 
        "price_range": 4, 
        "main": [], 
        "type": "R"
    }, 
    {
        "category": [
            "turkish"
        ], 
        "rating": 4.2, 
        "name": "Nalia", 
        "lon": 29.1069319099, 
        "comment_count": 280, 
        "avg_price": 150, 
        "lat": 40.9670432196, 
        "price_range": 4, 
        "main": [], 
        "type": "R"
    }, 
    {
        "category": [
            "turkish", 
            "homeMade"
        ], 
        "rating": 4.2, 
        "name": "Hayvore", 
        "lon": 28.9788064733, 
        "comment_count": 245, 
        "avg_price": 60, 
        "lat": 41.0338855157, 
        "price_range": 3, 
        "main": [], 
        "type": "R"
    }, 
    {
        "category": [
            "turkish"
        ], 
        "rating": 4.2, 
        "name": "\u00c7ay Tarlas\u0131 Cafe", 
        "lon": 29.0268619359, 
        "comment_count": 267, 
        "avg_price": 60, 
        "lat": 40.9847371645, 
        "price_range": 3, 
        "main": [], 
        "type": "R"
    }, 
    {
        "category": [
            "turkish"
        ], 
        "rating": 4.2, 
        "name": "Karpi", 
        "lon": 29.0447438881, 
        "comment_count": 156, 
        "avg_price": 85, 
        "lat": 41.0446361765, 
        "price_range": 3, 
        "main": [], 
        "type": "R"
    }, 
    {
        "category": [
            "turkish", 
            "homeMade"
        ], 
        "rating": 4.1, 
        "name": "Pileki Pide", 
        "lon": 29.0465402976, 
        "comment_count": 107, 
        "avg_price": 120, 
        "lat": 41.161578065, 
        "price_range": 4, 
        "main": [], 
        "type": "R"
    }, 
    {
        "category": [
            "turkish", 
            "homeMade"
        ], 
        "rating": 4.0, 
        "name": "Fasuli Lokantalar\u0131", 
        "lon": 28.9815446734, 
        "comment_count": 309, 
        "avg_price": 100, 
        "lat": 41.0260553341, 
        "price_range": 3, 
        "main": [], 
        "type": "R"
    }, 
    {
        "category": [
            "turkish"
        ], 
        "rating": 4.0, 
        "name": "Muhlama Karadeniz Mutfa\u011f\u0131", 
        "lon": 29.1066992283, 
        "comment_count": 212, 
        "avg_price": 60, 
        "lat": 41.092549218, 
        "price_range": 3, 
        "main": [], 
        "type": "R"
    }, 
    {
        "category": [
            "turkish", 
            "homeMade"
        ], 
        "rating": 4.0, 
        "name": "Cadde Karadeniz", 
        "lon": 29.0290345252, 
        "comment_count": 115, 
        "avg_price": 60, 
        "lat": 40.9910067813, 
        "price_range": 3, 
        "main": [], 
        "type": "R"
    }, 
    {
        "category": [
            "meat", 
            "turkish"
        ], 
        "rating": 4.0, 
        "name": "Trabzon K\u00fclt\u00fcr Derne\u011fi", 
        "lon": 29.0453886241, 
        "comment_count": 101, 
        "avg_price": 160, 
        "lat": 41.0357906288, 
        "price_range": 4, 
        "main": [], 
        "type": "R"
    }, 
    {
        "category": [
            "turkish"
        ], 
        "rating": 4.0, 
        "name": "Havva Han\u0131m Trabzon Kahvalt\u0131", 
        "lon": 29.0878282115, 
        "comment_count": 107, 
        "avg_price": 70, 
        "lat": 40.965365743, 
        "price_range": 3, 
        "main": [], 
        "type": "R"
    }, 
    {
        "category": [], 
        "rating": 4.4, 
        "name": "\u00c7engelk\u00f6y B\u00f6rek\u00e7isi", 
        "lon": 29.0531489253, 
        "comment_count": 168, 
        "avg_price": 25, 
        "lat": 41.0504674831, 
        "price_range": 1, 
        "main": [], 
        "type": "R"
    }, 
    {
        "category": [], 
        "rating": 4.3, 
        "name": "Tarihi Bilice B\u00f6rek\u00e7isi", 
        "lon": 29.0362023935, 
        "comment_count": 103, 
        "avg_price": 40, 
        "lat": 41.1567868046, 
        "price_range": 2, 
        "main": [], 
        "type": "R"
    }, 
    {
        "category": [], 
        "rating": 4.2, 
        "name": "Tarihi Bilice B\u00f6rek\u00e7isi", 
        "lon": 28.9907754958, 
        "comment_count": 101, 
        "avg_price": 40, 
        "lat": 41.1692588494, 
        "price_range": 2, 
        "main": [], 
        "type": "R"
    }, 
    {
        "category": [
            "cafe"
        ], 
        "rating": 4.1, 
        "name": "Bo\u015fnjak Mutfak", 
        "lon": 28.9810816571, 
        "comment_count": 208, 
        "avg_price": 70, 
        "lat": 41.0257768509, 
        "price_range": 3, 
        "main": [], 
        "type": "R"
    }, 
    {
        "category": [
            "patisserie", 
            "cafe", 
            "turkish"
        ], 
        "rating": 4.9, 
        "name": "Kukis", 
        "lon": 29.0495882928, 
        "comment_count": 763, 
        "avg_price": 45, 
        "lat": 41.0078841783, 
        "price_range": 2, 
        "main": [], 
        "type": "R"
    }, 
    {
        "category": [
            "cafe"
        ], 
        "rating": 4.9, 
        "name": "Starbucks", 
        "lon": 29.0440092981, 
        "comment_count": 1287, 
        "avg_price": 55, 
        "lat": 41.0774495722, 
        "price_range": 2, 
        "main": [], 
        "type": "R"
    }, 
    {
        "category": [
            "cafe"
        ], 
        "rating": 4.9, 
        "name": "Mandabatmaz T\u00fcrk Kahvesi", 
        "lon": 28.9763780683, 
        "comment_count": 635, 
        "avg_price": 15, 
        "lat": 41.0326475293, 
        "price_range": 1, 
        "main": [], 
        "type": "R"
    }, 
    {
        "category": [
            "cafe", 
            "homeMade"
        ], 
        "rating": 4.9, 
        "name": "Velvet Cafe", 
        "lon": 28.9736013114, 
        "comment_count": 641, 
        "avg_price": 55, 
        "lat": 41.025323839, 
        "price_range": 2, 
        "main": [], 
        "type": "R"
    }, 
    {
        "category": [
            "cafe"
        ], 
        "rating": 4.9, 
        "name": "Coffeetopia", 
        "lon": 28.9732952043, 
        "comment_count": 606, 
        "avg_price": 50, 
        "lat": 41.016542987, 
        "price_range": 2, 
        "main": [], 
        "type": "R"
    }, 
    {
        "category": [
            "cafe"
        ], 
        "rating": 4.9, 
        "name": "T\u00fcrk Alman Kitabevi Cafe", 
        "lon": 28.9751928672, 
        "comment_count": 352, 
        "avg_price": 60, 
        "lat": 41.0291281825, 
        "price_range": 3, 
        "main": [], 
        "type": "R"
    }, 
    {
        "category": [
            "cafe"
        ], 
        "rating": 4.8, 
        "name": "Okkal\u0131 Kahve", 
        "lon": 29.0037040785, 
        "comment_count": 509, 
        "avg_price": 40, 
        "lat": 41.0429786277, 
        "price_range": 2, 
        "main": [], 
        "type": "R"
    }, 
    {
        "category": [
            "cafe"
        ], 
        "rating": 4.8, 
        "name": "Petra Roasting Co.", 
        "lon": 29.009395726, 
        "comment_count": 341, 
        "avg_price": 75, 
        "lat": 41.0620767224, 
        "price_range": 3, 
        "main": [], 
        "type": "R"
    }, 
    {
        "category": [
            "cafe"
        ], 
        "rating": 4.7, 
        "name": "Dem Karak\u00f6y", 
        "lon": 28.9735855535, 
        "comment_count": 1224, 
        "avg_price": 35, 
        "lat": 41.023262102, 
        "price_range": 2, 
        "main": [], 
        "type": "R"
    }, 
    {
        "category": [
            "patisserie", 
            "cafe"
        ], 
        "rating": 4.7, 
        "name": "Patisserie De Pera - Pera Palace Hotel Jumeirah", 
        "lon": 28.9737910777, 
        "comment_count": 151, 
        "avg_price": 75, 
        "lat": 41.0309985307, 
        "price_range": 3, 
        "main": [], 
        "type": "R"
    }, 
    {
        "category": [
            "cafe"
        ], 
        "rating": 4.6, 
        "name": "Caffe Nero", 
        "lon": 29.0657646954, 
        "comment_count": 330, 
        "avg_price": 45, 
        "lat": 40.963892536, 
        "price_range": 2, 
        "main": [], 
        "type": "R"
    }, 
    {
        "category": [
            "cafe"
        ], 
        "rating": 4.6, 
        "name": "Montag Coffee Roasters", 
        "lon": 29.0242712572, 
        "comment_count": 234, 
        "avg_price": 50, 
        "lat": 40.9900466243, 
        "price_range": 2, 
        "main": [], 
        "type": "R"
    }, 
    {
        "category": [
            "patisserie", 
            "cafe"
        ], 
        "rating": 4.6, 
        "name": "La Vita Patisserie", 
        "lon": 28.9927640185, 
        "comment_count": 157, 
        "avg_price": 40, 
        "lat": 41.0524621254, 
        "price_range": 2, 
        "main": [], 
        "type": "R"
    }, 
    {
        "category": [
            "fastfood", 
            "meat", 
            "turkish", 
            "seafood", 
            "cafe"
        ], 
        "rating": 4.5, 
        "name": "Tarihi \u00c7\u0131naralt\u0131 Aile \u00c7ay Bah\u00e7esi", 
        "lon": 29.0526195243, 
        "comment_count": 1086, 
        "avg_price": 45, 
        "lat": 41.050279621, 
        "price_range": 2, 
        "main": [], 
        "type": "R"
    }, 
    {
        "category": [
            "cafe"
        ], 
        "rating": 4.5, 
        "name": "Mangerie", 
        "lon": 29.0453299508, 
        "comment_count": 807, 
        "avg_price": 275, 
        "lat": 41.078361952, 
        "price_range": 4, 
        "main": [], 
        "type": "R"
    }, 
    {
        "category": [
            "cafe", 
            "patisserie"
        ], 
        "rating": 4.5, 
        "name": "Baylan", 
        "lon": 29.0451264381, 
        "comment_count": 797, 
        "avg_price": 210, 
        "lat": 41.078301801, 
        "price_range": 4, 
        "main": [], 
        "type": "R"
    }, 
    {
        "category": [
            "cafe"
        ], 
        "rating": 4.5, 
        "name": "FiLBooks", 
        "lon": 28.9788359776, 
        "comment_count": 591, 
        "avg_price": 60, 
        "lat": 41.0251015053, 
        "price_range": 3, 
        "main": [], 
        "type": "R"
    }, 
    {
        "category": [
            "italian", 
            "cafe"
        ], 
        "rating": 4.5, 
        "name": "San Marco's Caffe", 
        "lon": 28.8700703904, 
        "comment_count": 452, 
        "avg_price": 80, 
        "lat": 40.9789382571, 
        "price_range": 3, 
        "main": [], 
        "type": "R"
    }, 
    {
        "category": [
            "fastfood", 
            "meat", 
            "turkish", 
            "cafe"
        ], 
        "rating": 4.5, 
        "name": "Emek Cafe", 
        "lon": 29.0705229342, 
        "comment_count": 515, 
        "avg_price": 55, 
        "lat": 41.1219735837, 
        "price_range": 2, 
        "main": [], 
        "type": "R"
    }, 
    {
        "category": [
            "cafe"
        ], 
        "rating": 4.5, 
        "name": "Cafe Naftalin K", 
        "lon": 28.9510506392, 
        "comment_count": 335, 
        "avg_price": 40, 
        "lat": 41.0300126526, 
        "price_range": 2, 
        "main": [], 
        "type": "R"
    }, 
    {
        "category": [
            "cafe"
        ], 
        "rating": 4.5, 
        "name": "Coffee Sapiens", 
        "lon": 28.9813059568, 
        "comment_count": 279, 
        "avg_price": 50, 
        "lat": 41.0258352794, 
        "price_range": 2, 
        "main": [], 
        "type": "R"
    }, 
    {
        "category": [
            "cafe"
        ], 
        "rating": 4.5, 
        "name": "Noir Pit Coffee Co.", 
        "lon": 28.9729622751, 
        "comment_count": 220, 
        "avg_price": 40, 
        "lat": 41.0287702937, 
        "price_range": 2, 
        "main": [], 
        "type": "R"
    }, 
    {
        "category": [
            "cafe"
        ], 
        "rating": 4.5, 
        "name": "Sunday", 
        "lon": 28.9946915209, 
        "comment_count": 208, 
        "avg_price": 40, 
        "lat": 41.0492965601, 
        "price_range": 2, 
        "main": [], 
        "type": "R"
    }, 
    {
        "category": [
            "cafe"
        ], 
        "rating": 4.5, 
        "name": "Federal Coffee Company", 
        "lon": 28.9737337455, 
        "comment_count": 225, 
        "avg_price": 60, 
        "lat": 41.0258757493, 
        "price_range": 3, 
        "main": [], 
        "type": "R"
    }, 
    {
        "category": [
            "cafe"
        ], 
        "rating": 4.5, 
        "name": "Gezi \u0130stanbul", 
        "lon": 28.9873784781, 
        "comment_count": 189, 
        "avg_price": 120, 
        "lat": 41.0360920833, 
        "price_range": 4, 
        "main": [], 
        "type": "R"
    },